stop_id,stop_code,stop_name,stop_desc,stop_lat,stop_lon,stop_url,location_type,parent_station,stop_timezone,wheelchair_boarding
49,,BND RECLAMATION BUS STN.,,19.0479973563,72.8270317232,,0,,,
48,,UNIT TRUST OF INDIA,,19.0497416652,72.8282118951,,0,,,
47,,PARIJAT,,19.0509383316,72.8299714242,,0,,,
46,,AKSHAY,,19.0467094,72.8592389,,0,,,
919,,SIR ALIYAWAR JUNG INSTITUTE,,19.0520538604,72.8341985857,,0,,,
45,,TELEPHONE EXCHANGE,,19.0512020027,72.8358937418,,0,,,
2449,,MAHIM KOLIWADA,,19.0461851322,72.8383994742,,0,,,
2373,,MAHIM BUS STN.,,19.0432840233,72.8400750979,,0,,,
44,,MAHIM,,19.04012,72.84161,,0,,,
5189,,SHITALADEVI TEMPLE,,19.0347321062,72.8423390369,,0,,,
33,,SHITALADEVI TEMPLE,,19.0347321062,72.8423390369,,0,,,
32,,CITYLIGHT CINEMA,,19.0302593381,72.8417167644,,0,,,
3028,,RAM GANESH GADKARI CHK.,,19.0247053398,72.8406820723,,0,,,
3029,,RAM GANESH GADKARI CHK.,,19.025273336,72.8404460379,,0,,,
30,,VEER KOTWAL UDN. (PLAZA),,19.0216857288,72.842245956,,0,,,
29,,KHODADAD CIRCLE,,19.0165828703,72.8468455985,,0,,,
28,,CHITRA CINEMA,,19.0136151515,72.844661453,,0,,,
4357,,SHINDEWADI,,19.0107028727,72.8427454782,,0,,,
26,,HINDMATA CINEMA,,19.0083495266,72.8413721872,,0,,,
25,,MADKEBUWA CHK.,,19.0053063574,72.8396126581,,0,,,
24,,PAREL WORKSHOP,,19.0013298657,72.8378102136,,0,,,
23,,BHARATMATA CINEMA,,18.9966634532,72.8366944146,,0,,,
22,,SANT JAGNADE CHK.,,18.9910708053,72.8356901624,,0,,,
21,,SHANTARAM PUJARE CHK.,,18.9883104664,72.8358590082,,0,,,
20,,JAIHIND CINEMA,,18.9855509964,72.8356015161,,0,,,
5047,,JIJAMATA UDN.,,18.9821141251,72.8346024823,,0,,,
19,,JIJAMATA UDN.,,18.9772577915,72.8333380324,,0,,,
18,,BYCULLA STN(E),,18.9725501205,72.8331663711,,0,,,
3159,,A.H.ANSARI CHK.,,18.9701145153,72.8324946062,,0,,,
3160,,A.H.ANSARI CHK./ NEW NAGPADA,,18.967139193,72.8326984131,,0,,,
15,,DR.M.IQBAL CHK.,,18.9618113458,72.8320368584,,0,,,
14,,JOHAR CHK.,,18.9584832148,72.8317793664,,0,,,
13,,MINARA MASJID,,18.9569796797,72.8324043229,,0,,,
12,,ZAKERIA MASJID,,18.9530445124,72.8338805984,,0,,,
11,,CHAKLA MARKET,,18.9494286,72.8346616,,0,,,
3147,,MAHATMA PHULE MARKET,,18.9464951482,72.8352296966,,0,,,
10,,MAHATMA PHULE MARKET,,18.9451049251,72.8340495246,,0,,,
9,,CHH. SHIVAJI TERMINUS,,18.9409747781,72.8345966953,,0,,,
8,,KHADI BHANDAR,,18.9364462942,72.8338694154,,0,,,
897,,HUTATMA CHK. (SIDDHARTH COLLEGE),,18.9329958767,72.8315519869,,0,,,
6,,HUTATMA CHK./MUMBAI UNIVERSITY,,18.9280061692,72.8313447664,,0,,,
703,,DR.SHYAMAPRASAD MUKHERJI CHK./REGAL,,18.9235674747,72.8317803649,,0,,,
1119,,DR.SHYAMAPRASAD MUKHERJI CHK.,,18.9255817986,72.8328547271,,0,,,
5072,,HOLY NAME SCHOOL,,18.9159731255,72.825593892,,0,,,
4,,COLABA DEPOT,,18.9161355162,72.8271388444,,0,,,
3,,STRAND CINEMA,,18.9173370318,72.8273949847,,0,,,
2,,SASOON DOCK/COLABA FIRE STN.,,18.915655,72.825845,,0,,,
4835,,SASOON DOCK,,18.9140873797,72.823998701,,0,,,
41,,COLABA BUS STN.,,18.912522949,72.8224455882,,0,,,
2687,,COLABA BUS STN.,,18.9125744619,72.8231382846,,0,,,
3540,,COLABA BUS STN./POST OFFICE,,18.9116703775,72.8214156199,,0,,,
40,,AFGHAN CHURCH,,18.9062909571,72.8165447284,,0,,,
39,,PILOT BUNDER,,18.9038658512,72.8156280994,,0,,,
3454,,INS ASHWINI HOSPITAL,,18.9009425795,72.8144693851,,0,,,
37,,R.C.CHURCH,,18.8966184798,72.8114438533,,0,,,
5,,DR.SHYAMAPRASAD MUKHERJI CHK.,,18.9256313577,72.8318061063,,0,,,
3119,,HUTATMA CHK./MUMBAI UNIVERSITY,,18.9300934115,72.8297495424,,0,,,
896,,HUTATMA CHK. (SIDDHARTH COLLEGE),,18.933790825,72.8320904205,,0,,,
42,,KHADI BHANDAR,,18.9356910915,72.8334011266,,0,,,
17,,A.H.ANSARI CHK./ NEW NAGPADA,,18.9670470233,72.8328077148,,0,,,
43,,JIJAMATA UDN.,,18.9784882913,72.8337727019,,0,,,
107,,P.MOHD.RAFI CHK.,,19.0521364408,72.8380851949,,0,,,
108,,BANDRA TALKIES/SHROFF EYE HOSPITAL,,19.060668892,72.8370565687,,0,,,
460,,KHAR STN RD (W),,19.0713022851,72.8373095075,,0,,,
110,,ST.TERESA CONVENT SCHOOL,,19.075500175,72.8375026265,,0,,,
111,,SANTACRUZ STN.RD.,,19.0810769173,72.837867407,,0,,,
112,,KHIRA NGR.,,19.0875948013,72.838074815,,0,,,
113,,SANTACRUZ DEPOT,,19.0901111788,72.8381355963,,0,,,
233,,BACKBAY DEPOT,,18.9090196526,72.8167825799,,0,,,
299,,WORLD TRADE CENTRE,,18.9143976499,72.8193908246,,0,,,
234,,PRESIDENT HOTEL,,18.9143482377,72.8217178445,,0,,,
235,,CUFFE PARADE MACCHIMARNGR.,,18.9200838735,72.8260617505,,0,,,
3653,,FREE PRESS HOUSE,,18.9228243562,72.8235701309,,0,,,
3149,,Y.B.CHAVAN PRATISHTHAN/MANTRALAYA,,18.9265156664,72.8273771053,,0,,,
3034,,DR.SHYAMAPRASAD MUKHERJI CHK.,,18.9256914893,72.8309917691,,0,,,
148,,JAGATDEV.N.VARMA CHK/KAPOLE NIWAS,,19.0230088253,72.8517122486,,0,,,
149,,MAHESHWARI UDN.,,19.0268913676,72.855319674,,0,,,
151,,LOKMANYA TILAK HOSPITAL,,19.0364333987,72.8603593658,,0,,,
2684,,RANI LAXMIBAI CHK.,,19.0437547562,72.8643269827,,0,,,
170,,EVERARD NGR.,,19.0507964755,72.8752883027,,0,,,
171,,PRIYADARSHINI,,19.0525373,72.8801425,,0,,,
3056,,LOKSHAHIR SATHE UDN./SUMAN NGR.,,19.0550937966,72.8852502655,,0,,,
319,,S.G.BARVE MARG NAKA,,19.0570408476,72.8878251861,,0,,,
3051,,AMAR MAHAL,,19.0657252138,72.8993779719,,0,,,
2993,,CHHEDA NGR.,,19.0679560648,72.9032403529,,0,,,
3709,,JIJAMATA BHOSLE MARG JN.,,19.0707750064,72.9072529376,,0,,,
378,,R.T.O.OFFICE,,19.0721038956,72.9096988709,,0,,,
379,,RAMABAI NGR.,,19.0801547885,72.9176653879,,0,,,
381,,GODREJ SOAP CO.,,19.0912469396,72.9249824541,,0,,,
328,,VIKHROLI VILLAGE,,19.1045377361,72.9304701388,,0,,,
332,,VIKHROLI STN.RD.(E),,19.1090997389,72.9323798717,,0,,,
2608,,KANNAMWAR NGR.-1/PRAVIN HOTEL,,19.1139657366,72.9343754352,,0,,,
1177,,VIKHROLI POLICE STN.,,19.1188113169,72.936413914,,0,,,
1261,,KANJUR MARG VILLAGE,,19.1318419375,72.9427762319,,0,,,
2609,,BHANDUP VILLAGE,,19.1443704407,72.9502830719,,0,,,
1262,,BHANDUP PUMPING CENTRE,,19.1547640714,72.9565466897,,0,,,
2701,,MITHAGAR,,19.1650854875,72.9638905813,,0,,,
3778,,ANAND NGR.POLICE CHKY,,19.1775703582,72.9676671316,,0,,,
3662,,"DNYANSADHANA COLLEGE,KOPARI",,19.182735,72.965406,,0,,,
3685,,MARATHON CHK.(TEEN HATH NAKA),,19.1886909233,72.963720333,,0,,,
3663,,LOUISWADI,,19.1972642074,72.9626463938,,0,,,
3958,,NITIN CO.JUN.,,19.1989476342,72.9635740937,,0,,,
3664,,CADBURY JN.(THANE),,19.2046147257,72.9689005267,,0,,,
3026,,JIJAMATA UDN.,,18.9805789633,72.8344069449,,0,,,
105,,ROBERT GOMES CHK.,,18.9811719739,72.8354279156,,0,,,
4653,,BYCULLA STN (E),,18.9762107696,72.8335718269,,0,,,
103,,BYCULLA STN.- E(GLORIA CHURCH),,18.9755208563,72.8340546246,,0,,,
106,,MASIANA HOSP/RUSTOM BAUG,,18.9759977084,72.8375307674,,0,,,
102,,MUSTAFA BAZAR/SAVLYA TANDEL CHK.,,18.9762817899,72.8402344341,,0,,,
101,,ANJEERWADI,,18.9724254728,72.8404308091,,0,,,
3082,,MAHARANA PRATAP CHK./POST OFFICE,,18.9694222316,72.8407526742,,0,,,
99,,MAZGAON COURT,,18.9687940517,72.838936245,,0,,,
98,,ST.MARY'S HIGH SCHOOL,,18.9694839928,72.8361896629,,0,,,
335,,MANDVI POST OFFICE,,18.9572417583,72.8320962763,,0,,,
819,,CHH. SHIVAJI TERMINUS(GPO),,18.9384599027,72.8370017985,,0,,,
706,,INDIRA DOCK,,18.9377884182,72.839763745,,0,,,
3450,,BALLARD PIER,,18.9368547904,72.8404503905,,0,,,
94,,FOREIGN POST OFFICE,,18.9354492647,72.8404718482,,0,,,
93,,NEW CUSTOM HOUSE,,18.9339820113,72.8398293833,,0,,,
2120,,SWAMI D.SARASWATI CHK.,,18.9344665935,72.8371090869,,0,,,
705,,RESERVE BANK,,18.935927538,72.837091586,,0,,,
92,,OLD CUSTOM HOUSE,,18.9308911427,72.8356206375,,0,,,
91,,LION'S GATE,,18.9280089383,72.8339898544,,0,,,
3025,,DR.SHYAMAPRASAD MUKHERJI CHK.,,18.9241635742,72.8320526878,,0,,,
89,,DHOBI GHAT(NAVY NGR.),,18.9070698435,72.8134707732,,0,,,
87,,NAVY NGR.,,18.9079393907,72.8059461549,,0,,,
237,,Y.B.CHAWAN PRATISHTHAN,,18.9252220278,72.8269385873,,0,,,
4470,,MANTRALAYA,,18.9293131884,72.82360783,,0,,,
5040,,MANTRALAYA,,18.9284340874,72.8246470803,,0,,,
3020,,AHILYABAI HOLKAR CHK.,,18.9319342454,72.8282323545,,0,,,
3264,,AHILYABAI HOLKAR CHK.,,18.9318936516,72.8272023862,,0,,,
903,,MARINE LINES RLY.STN.(KALA NIKETAN),,18.9441931305,72.825056619,,0,,,
439,,MARINE LINES RLY. STN.,,18.9474403665,72.8227821057,,0,,,
441,,PT.PALUSKAR CHK.,,18.9563352821,72.8156893762,,0,,,
443,,BABULNATH RD.JUN.,,18.9591657008,72.8096414574,,0,,,
445,,CUMBALA HILL POST OFFICE,,18.9631006901,72.8077476274,,0,,,
446,,JASLOK HOSPITAL,,18.9715018311,72.8094213258,,0,,,
447,,VATSALABAI DESAI CHK.,,18.9790678632,72.8118941321,,0,,,
449,,NEHRU PLANETARIUM,,18.9888845822,72.8139196724,,0,,,
452,,ACHARYA ATRE CHK.,,18.9983425952,72.8174326012,,0,,,
523,,PODDAR HOSPITAL/SIDDHARTH NGR.,,19.0035128932,72.8161598559,,0,,,
455,,DOORDARSHAN,,19.0068054696,72.8182136157,,0,,,
2274,,DR.RAVINDRA KULKARNI CHK/SASMIRA,,19.0100179603,72.8198702207,,0,,,
400,,BABASAHEB WORLIKAR CHK.,,19.0130353629,72.8236618709,,0,,,
3058,,BABASAHEB WORLIKAR CHK.,,19.0127438913,72.8244768471,,0,,,
402,,PRABHADEVI,,19.0161012445,72.8283478137,,0,,,
2501,,PRABHADEVI,,19.0140761008,72.8300335524,,0,,,
1060,,KIRTI COLLEGE / INDIA UNITED MILL,,19.0197122314,72.8322960253,,0,,,
833,,MAHAPOUR NIWAS/SHIVAJI PARK,,19.0258791287,72.8359009142,,0,,,
1063,,NATIONAL(HINDUJA)HOSPITAL,,19.0335801122,72.8387207856,,0,,,
3893,,NATIONAL(HINDUJA)HOSPITAL,,19.0321196196,72.8395790925,,0,,,
1353,,BANDRA TALKIES,,19.0601922827,72.836418203,,0,,,
109,,KHAR,,19.0691726662,72.8336219991,,0,,,
552,,SANTACRUZ POLICE STN,,19.0845256921,72.8347194835,,0,,,
134,,JUHU KOLIWADA,,19.0858727048,72.8281332369,,0,,,
137,,JUHU BEACH,,19.0980391385,72.8268457766,,0,,,
468,,JUHU HOTEL,,19.1042436753,72.8267170306,,0,,,
1277,,PARASMANI/MADHUKUNJ SCTY.,,19.1086057292,72.8298479787,,0,,,
438,,J.V.P.D.BUS STN.,,19.1199906825,72.8297009585,,0,,,
509,,ESIC NGR.,,19.1242702762,72.8306563352,,0,,,
511,,INDIAN OIL NGR.,,19.1284338647,72.8290629991,,0,,,
512,,FOUR BUNGALOWS,,19.1292042338,72.8261876711,,0,,,
618,,SHREE SWAMI SAMARTH NGR.,,19.140204422,72.8261502241,,0,,,
2247,,SHREE SWAMI SAMRTH NGR.MARKET,,19.1370906919,72.8257432645,,0,,,
963,,SHREE SWAMI SAMARTH NGR.EXT.,,19.1416085187,72.8284566296,,0,,,
534,,ADARSH NGR.,,19.1448091366,72.831270582,,0,,,
295,,BEHRAM BAUG,,19.1459989219,72.8345000556,,0,,,
128,,OSHIWARA DEPOT,,19.1509965982,72.8358283704,,0,,,
3333,,KURLA S.T.DEPOT,,19.0568187347,72.8840327989,,0,,,
3334,,KURLA S.T.DEPOT,,19.0563956613,72.8836398328,,0,,,
161,,SHIVSHRUSTI,,19.0545094486,72.8817515577,,0,,,
3713,,PRIYADARSHINI,,19.0525373,72.8801425,,0,,,
1054,,MARATHI VIDNYAN PARISHAD,,19.0535542407,72.8767901553,,0,,,
160,,TATA CLY.,,19.0528646482,72.8733998431,,0,,,
159,,CHUNABHATTI PHATAK,,19.0532195859,72.8693872584,,0,,,
157,,CHUNABHATTI BUS TERMINUS,,19.0515318033,72.8688013219,,0,,,
156,,CHUNABHATTI,,19.0520127947,72.8675204409,,0,,,
1066,,CENTRAL LABOUR INSTITUTE,,19.0496701752,72.8662973536,,0,,,
1053,,RANI LAXMIBAI CHK.,,19.0464857821,72.8655034197,,0,,,
154,,RANI LAXMIBAI CHK.,,19.0439417564,72.8643607675,,0,,,
152,,JAIN SCTY.,,19.0388187232,72.8614136529,,0,,,
150,,GANDHI MARKET,,19.0300978264,72.8579899787,,0,,,
147,,RUIA COLLEGE,,19.0218525295,72.8508539417,,0,,,
145,,VIJAY VALLABH CHK.,,18.9552794954,72.8321059617,,0,,,
144,,BHULESHWAR,,18.9525979425,72.8295477685,,0,,,
143,,SWADESHI MARKET,,18.9497161128,72.8287752923,,0,,,
142,,KALBADEVI,,18.9472502824,72.8288825806,,0,,,
3115,,VASUDEO B.PHADKE CHK.,,18.9428598221,72.8293418466,,0,,,
816,,VASUDEO B.PHADKE CHK.,,18.9439042479,72.8286011199,,0,,,
140,,MUMBAI GYMKHANA,,18.9367503189,72.8305965787,,0,,,
895,,HUTATMA CHK. ( O.C.S.),,18.9320825189,72.8312515794,,0,,,
7,,HUTATMA CHK.,,18.9264391247,72.8297885331,,0,,,
131,,AHILYABAI HOLKAR CHK.,,18.9325696437,72.828140217,,0,,,
139,,DR.AMBEDKAR STATUE,,18.9263181015,72.8297924577,,0,,,
130,,K.C.COLLEGE,,18.929281524,72.8281831323,,0,,,
4469,,MANTRALAYA,,18.9293537829,72.8240155258,,0,,,
50,,MANTRALAYA,,18.9286867079,72.8246703809,,0,,,
5156,,BANDRA(E) BUS STN,,19.0554446901,72.8433133024,,0,,,
62,,KALA NGR.,,19.0531099866,72.8470974172,,0,,,
2996,,KALA NGR.,,19.0530860673,72.8477919798,,0,,,
2470,,M.M.R.D.A./FAMILY COURT,,19.0557227254,72.8507531385,,0,,,
837,,R.B.I.BANK,,19.057142447,72.8525770407,,0,,,
838,,INCOME TAX OFFICE,,19.0584174471,72.8538854252,,0,,,
839,,TATA CLY.,,19.0596167898,72.8556240301,,0,,,
840,,BHARAT NGR.,,19.060607834,72.8584237229,,0,,,
2327,,ICICI BANK,,19.0650088017,72.8618247639,,0,,,
1616,,DIAMOND MARKET,,19.0680276568,72.8666605791,,0,,,
2328,,CITY BANK,,19.069328532,72.868819965,,0,,,
841,,BKC TEL.EXCHANGE,,19.0709712168,72.8721029889,,0,,,
842,,KAPADIA NGR.,,19.0748765844,72.8721745379,,0,,,
242,,KURLA DEPOT,,19.0755374014,72.8770819752,,0,,,
5107,,BUDDHA NGR JUN.,,19.0735111758,72.8802133111,,0,,,
5104,,SCLR DOUBLE DECK.FLY OVER JUN.,,19.0665864263,72.8872918407,,0,,,
1766,,SAHAKAR NGR.(SCLR),,19.0751691,72.8725634,,0,,,
5108,,CHHEDA NAGAR,,19.0683195046,72.9035592584,,0,,,
189,,TATA POWER CENTRE(CHEMBUR),,19.0313378692,72.8968021626,,0,,,
188,,LUBE INDIA CO.,,19.0145801767,72.898260383,,0,,,
187,,GAWANGAON/REFINERIES,,19.0201808526,72.8980037923,,0,,,
186,,BHARAT PETROLEUM,,19.0090620622,72.8990328592,,0,,,
185,,B.D.PATIL MARG/ HPCL,,19.0260812444,72.8975950422,,0,,,
184,,CALICO CHEMICALS,,19.0230080581,72.8979930852,,0,,,
182,,SHANKAR MANDIR,,19.0291748332,72.8971347783,,0,,,
5102,,VASHINAKA,,19.0330084533,72.8968222646,,0,,,
181,,VASHINAKA,,19.0330084533,72.8968222646,,0,,,
5097,,R.C.F.POLICE STN.,,19.0352803129,72.8957064657,,0,,,
180,,AZIZ BAUG,,19.0378270274,72.8948623173,,0,,,
179,,MARAWALI CHURCH,,19.0420743965,72.8933417269,,0,,,
4994,,CHEMBUR CLY.,,19.0455032966,72.893131545,,0,,,
178,,CHEMBUR CLY.,,19.0461469632,72.8932340323,,0,,,
177,,NAVJEEVAN SCTY.,,19.0479372475,72.8933446916,,0,,,
176,,BASANT PARK,,19.0503103152,72.8936021836,,0,,,
175,,BHAKTI BHAVAN,,19.0524751367,72.8912170111,,0,,,
174,,UMARSHI BAPPA CHK.,,19.054061719,72.8895960962,,0,,,
4726,,LOKSHAHIR SATHE UDYAN/SUMAN NAGAR,,19.0537283689,72.8843201305,,0,,,
862,,EVERARD SCTY.,,19.051119482,72.8775954972,,0,,,
297,,ANIK DEPOT,,19.0461705058,72.8787112962,,0,,,
2114,,WADALA TRUCK TERMINAL MAIN GATE,,19.0357447208,72.8797412645,,0,,,
2243,,BHAKTI PARK GATE,,19.0330671762,72.8787971269,,0,,,
5096,,BHAKTI PARK,,19.0284535647,72.8774320095,,0,,,
2752,,ADARSH HIGH SCHOOL,,19.024060573,72.876565529,,0,,,
2242,,SHANTI NGR.,,19.0199628127,72.8745485078,,0,,,
2241,,GANESH NGR.,,19.0177718895,72.8691411744,,0,,,
2172,,BARKAT ALI DARGAH,,19.0180766532,72.8655118177,,0,,,
227,,WADALA FLY OVER BRIDGE,,19.0186324254,72.8632468266,,0,,,
3039,,WADALA CHURCH,,19.0189419282,72.8586577977,,0,,,
336,,FIVE GARDENS,,19.0195658302,72.8548630672,,0,,,
3041,,RUIA COLLEGE,,19.0218122811,72.8512788099,,0,,,
196,,MAHUL VILLAGE,,19.0146898313,72.8880127022,,0,,,
2568,,MAHUL MARKET,,19.0157042908,72.8906210335,,0,,,
5041,,M.M.R.D.A.COLONY(MAHUL),,19.0185504073,72.8902954632,,0,,,
194,,WADALA RD.,,19.0215872124,72.8901370118,,0,,,
195,,MAZGAON DOCK,,19.0243663703,72.8900082657,,0,,,
193,,ACHARYA VIDYANIKETAN,,19.0265776128,72.8901918801,,0,,,
192,,H.P.NGR.,,19.0277135905,72.8914793404,,0,,,
3335,,BPCL SPORTS CLUB,,19.0278758723,72.8954275521,,0,,,
4868,,ELECTRIC HOUSE,,18.9187155059,72.8288910502,,0,,,
96,,CHH. SHIVAJI TERMINUS,,18.9409747781,72.8345966953,,0,,,
677,,CARNAC BUNDER,,18.9520900544,72.8413927513,,0,,,
674,,WADI BUNDER,,18.9574477063,72.8426587539,,0,,,
1805,,JIJAMATA NGR.,,19.0284892225,72.8881540403,,0,,,
3396,,ACHARYA VIDYANIKETAN,,19.0276369934,72.8894176551,,0,,,
3464,,CHEMBUR NAKA/SWAMI VIVEKANAND CHK.,,19.0510332454,72.893175816,,0,,,
3482,,ACHARYA GARDEN/ DIAMOND GARDEN,,19.0525325364,72.900813846,,0,,,
2939,,10TH RD.,,19.05760319,72.9004992502,,0,,,
2956,,DR.AMBEDKAR GARDEN BUS STN.,,19.0607669109,72.9005348963,,0,,,
5049,,BYCULLA STN (E),,18.9732030322,72.8343286547,,0,,,
3249,,MAHESHWARI UDN.,,19.0284162371,72.8569394847,,0,,,
298,,CUFFE PARADE POLICE STN.,,18.9122132925,72.8178167585,,0,,,
300,,G.D.SOMANI SCHOOL,,18.9154328979,72.8202705892,,0,,,
3542,,BADHWAR PARK,,18.9206616493,72.8262862023,,0,,,
3544,,VEEJ BHAVAN,,18.9214466078,72.8264450609,,0,,,
231,,GANDHI MARKET,,19.0323603254,72.8587289073,,0,,,
2685,,RANI LAXMIBAI CHK.,,19.0431994626,72.8639537522,,0,,,
1064,,RANI LAXMIBAI CHK.,,19.0453412957,72.8637814104,,0,,,
4207,,RANI LAXMIBAI CHK.,,19.0431707916,72.8641044837,,0,,,
1245,,RANI LAXMIBAI CHK./ SION BARRIER,,19.0477663512,72.8635054587,,0,,,
1247,,KURLA LEVEL CROSSING,,19.0524797133,72.8668295061,,0,,,
238,,RAJMATA A.H.UDYAN/KURLA LION'S PARK,,19.06009,72.872501,,0,,,
239,,KURLA POST OFFICE,,19.068988619,72.8752409136,,0,,,
240,,GOL BUILDING,,19.065987122,72.8748761331,,0,,,
241,,ANJANABAI MAGAR/S.SAINIK SURVE CHK.,,19.0759837,72.8776559,,0,,,
1249,,OLD AGRA RD.,,19.0782798581,72.8792656108,,0,,,
243,,SHEETAL CINEMA,,19.0812811324,72.881540124,,0,,,
244,,KAMANI,,19.0847095843,72.8853232154,,0,,,
245,,MUKUND CO./ P.W.D.OFFICE,,19.0850934835,72.8873336955,,0,,,
1250,,GURU NANAK NGR.,,19.0851340399,72.8926981135,,0,,,
246,,NARAYAN NGR.,,19.0847284749,72.890509431,,0,,,
248,,CHIRAG NGR.,,19.0863086132,72.896121347,,0,,,
249,,GHATKOPAR POLICE STN.,,19.0869996261,72.8992641612,,0,,,
250,,GHATKOPAR PIPE LINE,,19.0875331961,72.9030013082,,0,,,
251,,SARVODAYA HOSPITAL,,19.0885918901,72.907039281,,0,,,
253,,GOPAL BHAVAN,,19.0905279599,72.9097355052,,0,,,
254,,SHREYAS CINEMA,,19.093237015,72.9125531407,,0,,,
1251,,MINATAI THAKRE MAIDAN (ANACIN COMP),,19.0968490842,72.9155387954,,0,,,
257,,VIKHROLI DEPOT,,19.0990592396,72.9173197822,,0,,,
268,,VIKHROLI PARK SITE,,19.1051396074,72.9128705266,,0,,,
267,,SHIVAJI MAIDAN,,19.1032539497,72.9155956509,,0,,,
266,,MUNICIPAL HOSPITAL(PARK SITE),,19.1020576611,72.9169903996,,0,,,
2648,,HUTATMA CHK. ( O.C.S.),,18.9294499818,72.8313215794,,0,,,
153,,RANI LAXMIBAI CHK.(NEAR RD NO.1),,19.0452499966,72.8651568411,,0,,,
4661,,HIGHWAY APT.,,19.0483422838,72.8682287285,,0,,,
197,,CHEMBUR NAKA/SWAMI VIVEKANAND CHK.,,19.0540567684,72.8948291035,,0,,,
198,,SANDUWADI,,19.0532170246,72.8977974476,,0,,,
3107,,ACHARYA GARDEN/ DIAMOND GARDEN,,19.0527759228,72.9009425921,,0,,,
3108,,ACHARYA GARDEN/ DIAMOND GARDEN,,19.0521268917,72.9007923884,,0,,,
201,,DR.AMBEDKAR GARDEN,,19.0617000214,72.9004992502,,0,,,
2955,,DR.AMBEDKAR GARDEN BUS STN.,,18.9743986946,72.8435674378,,0,,,
2954,,SUBHASH NGR.,,19.0602167731,72.9047816885,,0,,,
340,,ACHARYA MARATHE COLLEGE,,19.0589292631,72.9074238159,,0,,,
1788,,DADOJI KONDEV NGR.(KHARDEV NAGAR),,19.05755012,72.9091404297,,0,,,
341,,SAMRAT ASHOK NGR.,,19.0552785652,72.9103849747,,0,,,
342,,GAUTAM NGR./DEONAR ABATTOIR,,19.0549928195,72.911289063,,0,,,
343,,SHIVAJI NGR.JN.,,19.0626420708,72.9183238093,,0,,,
337,,SHIVAJI NGR.TERMINUS,,19.0646193296,72.9314347104,,0,,,
812,,R.K.STUDIO,,19.0468102014,72.9080483113,,0,,,
811,,MAITRI PARK,,19.049406394,72.9053017293,,0,,,
230,,NADKARNI PARK,,19.0138387513,72.8627834009,,0,,,
229,,NADKARNI PARK POLICE STN.,,19.0152157759,72.863476349,,0,,,
228,,KORBA MITHAGAR,,19.0163112579,72.8645492326,,0,,,
3036,,WADALA FLY OVER BRIDGE,,19.0188603232,72.8641147831,,0,,,
226,,INDIAN OIL DEPOT/BARKAT ALI DARGAH,,19.0759837,72.8776559,,0,,,
5202,,ANTOP HILL POST OFFICE,,19.0246215402,72.863857291,,0,,,
5205,,INDIAN HUME PIPE CO.,,19.0175694919,72.8699535558,,0,,,
5203,,DOSTI ACRES,,19.0244401,72.8670558,,0,,,
224,,ANTOP HILL,,19.0263356665,72.8662326555,,0,,,
223,,KANE NGR.,,19.0295305886,72.8642006137,,0,,,
222,,C.G.S.DISPENSARY,,19.0309099645,72.8631277301,,0,,,
221,,ANTOP HILL POLICE STN.,,19.0319242042,72.8649301746,,0,,,
220,,ANTOP HILL CHURCH,,19.0313480886,72.8671553016,,0,,,
219,,SARDAR NGR.NO 4,,19.0351697296,72.8673763492,,0,,,
218,,SARDAR NGR.NO 2,,19.0367316161,72.8683419445,,0,,,
217,,GURU TEG BAHADUR NGR STN,,19.037382,72.864969,,0,,,
1158,,GURU TEG BAHADUR NGR STN,,19.037382,72.864969,,0,,,
3110,,LOKMANYA TILAK HOSPITAL,,19.0367924685,72.860584996,,0,,,
3109,,LOKMANYA TILAK HOSPITAL,,19.035382715,72.8600056388,,0,,,
216,,MATUNGA POLICE STN.,,19.0306969734,72.8578706005,,0,,,
3250,,MAHESHWARI UDN.,,19.0274831171,72.8568965693,,0,,,
3035,,KHALSA COLLEGE,,19.0247648681,72.8580123683,,0,,,
214,,AMULAKH HIGH SCHOOL,,19.0206853407,72.860779476,,0,,,
213,,WADALA GATE NO 4,,19.018494427,72.8601142882,,0,,,
844,,WADALA GATE NO 2/5,,19.0174517461,72.8593749305,,0,,,
281,,WADALA STN.(W),,19.0161817646,72.857968521,,0,,,
211,,WADALA STN./P.& T.QTRS.,,19.0155245176,72.8571218749,,0,,,
210,,AZAD NGR.,,19.0140030056,72.8556198379,,0,,,
209,,MADHAV NGR.,,19.0127006388,72.8547913263,,0,,,
208,,SAHAKAR NGR.,,19.0119676036,72.8515555575,,0,,,
207,,SPRING MILL,,19.0118700268,72.8489479999,,0,,,
824,,NAIGAON POLICE CLY.,,19.0070821834,72.8470060806,,0,,,
205,,BHOIWADA/MANE MASTER CHK.,,19.0759837,72.8776559,,0,,,
232,,TATA HOSPITAL,,19.0037208601,72.8422492186,,0,,,
3502,,WADIA MATERNITY HOSPITAL,,19.0026013659,72.842981269,,0,,,
4968,,K.E.M.HOSPITAL-NURSES QTRS.,,18.9995891134,72.8423621267,,0,,,
203,,MAHATMA GANDHI HOSPITAL,,18.9974111184,72.8404253165,,0,,,
782,,BHARATMATA CINEMA,,18.9953924587,72.8366343,,0,,,
818,,VASUDEO B.PHADKE CHK.,,18.9442419624,72.8295273086,,0,,,
202,,G.T.HOSPITAL,,18.9459250089,72.8317323185,,0,,,
1,,COLABA BUS STN.,,18.9118892648,72.8230460117,,0,,,
3105,,MAHESHWARI UDN.,,19.0252090803,72.8603288649,,0,,,
280,,KIDWAI NGR.,,19.0095838443,72.8542592242,,0,,,
279,,DNYANESHWAR NGR.,,19.0057494704,72.8540875628,,0,,,
278,,SHIVAJI NGR.,,19.0010269437,72.8538271903,,0,,,
276,,SEWREE STN.(W),,18.997901717,72.8540034276,,0,,,
3267,,SEWREE COURT,,18.9933265109,72.8513480407,,0,,,
277,,JACKERIA BUNDER,,18.9886707871,72.8456947325,,0,,,
275,,TANK BUNDER,,18.9884475968,72.8453943251,,0,,,
722,,KALACHKYPOLICE STN.,,18.9879606352,72.843441677,,0,,,
710,,SHRAWAN YESHWANTE CHK.,,18.9880273201,72.8414408185,,0,,,
273,,ALBERT RD/ TANAJI MALUSARE CHK.,,18.9853182743,72.8420605376,,0,,,
2744,,GHODAPDEV,,18.9808183686,72.8430554389,,0,,,
272,,REAY RD.STN.,,18.9766438952,72.8440453723,,0,,,
271,,DARUKHANA,,18.9721539012,72.8452012061,,0,,,
708,,BEST POWER HOUSE(KUSSARA),,18.96953621,72.8455445288,,0,,,
671,,DOCKYARD RD.RLY.STN.,,18.9679534,72.8442356108,,0,,,
100,,MAHARANA PRATAP CHK.,,18.968750325,72.8401937201,,0,,,
899,,HUTATMA CHK. ( O.C.S.),,18.9332525186,72.8313236179,,0,,,
290,,BANDRA CLY.BUS STN,,19.0587813299,72.8493964627,,0,,,
1356,,KHERWADI,,19.0609929024,72.8468276844,,0,,,
4596,,GANDHI NGR./CHETANA COLLEGE,,19.0597419908,72.847761572,,0,,,
288,,GANDHI NGR.,,19.0586861966,72.8478099296,,0,,,
955,,M.I.G.CLY.(KALA NGR.),,19.0569014184,72.8476382682,,0,,,
2995,,KALA NGR.,,19.0545892908,72.8477670142,,0,,,
3393,,KALA NGR.,,19.0555628221,72.8477240989,,0,,,
954,,DHARAVI T JN./TAPASE CHK.,,19.0470824434,72.8521049719,,0,,,
4660,,DHARAVI DEPOT/KOLIWADA,,19.0508789358,72.857976457,,0,,,
286,,DHARAVI DEPOT,,19.0506951083,72.858710427,,0,,,
958,,KALAKILLA,,19.0481800669,72.8577233741,,0,,,
3982,,DHARAVI PUMPING STN.,,19.0472876236,72.8614999244,,0,,,
953,,RANI LAXMIBAI CHK./ SION BARRIER,,19.0471333906,72.863122383,,0,,,
1065,,RANI LAXMIBAI CHK.,,19.0448955152,72.8640704359,,0,,,
4076,,RANI LAXMIBAI CHK.,,19.0425509169,72.8637739969,,0,,,
53,,SWAMI D.SARASWATI CHK.,,18.9345004013,72.8371137225,,0,,,
114,,NANAVATI HOSPITAL,,19.0933992552,72.8395178434,,0,,,
115,,VILE PARLE,,19.1006552029,72.8393372259,,0,,,
506,,MITHIBAI COLLEGE,,19.1035071371,72.8369375584,,0,,,
507,,DR.COOPER HOSPITAL,,19.1084645384,72.8369858381,,0,,,
527,,JUHU SHOPPING CENTRE,,19.1161081749,72.8334882376,,0,,,
529,,D.N.NGR./BARFIWALA VIDYALAYA,,19.1270679855,72.8310425733,,0,,,
3063,,INDIAN OIL NGR.,,19.1292353464,72.8313317415,,0,,,
531,,LAXMI INDL.EST.,,19.1350886137,72.8319553321,,0,,,
532,,MONGINIS CAKE CO.,,19.1371821001,72.8318038103,,0,,,
619,,LOKHANDWALA COMPLEX JN.,,19.1417684727,72.8314851587,,0,,,
296,,GOREGAON DEPOT,,19.1541981254,72.8354572924,,0,,,
969,,SHASTRI NGR.,,19.1591845247,72.8352372903,,0,,,
971,,BANGUR NGR.,,19.1676973439,72.8351085442,,0,,,
972,,VINAY INDUSTRY(SUBKUCH MARKET),,19.1745478172,72.8370397347,,0,,,
565,,CHINCHOLI BUNDER RD.,,19.1797177809,72.8365037642,,0,,,
5021,,MALAD DEPOT,,19.1836494573,72.835731288,,0,,,
3758,,"""D""MART SHOPPING CENTRE",,19.186055,72.835849,,0,,,
566,,KACHPADA,,19.18943,72.83556,,0,,,
568,,MITH CHKY,,19.1958041325,72.833029487,,0,,,
3327,,MITH CHKY,,19.1962646846,72.833601318,,0,,,
3560,,JANTA CLY./SHIV MANDIR,,19.1995880419,72.8337729794,,0,,,
3562,,SHANTI NGR.,,19.2062750819,72.8346312863,,0,,,
3564,,KAMRAJ NGR.,,19.2090087565,72.8350085225,,0,,,
3612,,MAHAVIR NGR.EXTN.,,19.2164874909,72.8393734318,,0,,,
5000,,CHIKOOWADI,,19.2199992655,72.8413890841,,0,,,
3614,,SHIMPOLI TEL.EXCHANGE,,19.2241869036,72.8410900456,,0,,,
3615,,DON BOSCO (LINK RD.),,19.2304272156,72.8407467228,,0,,,
3515,,M.H.B.POLICE STN.,,19.2327774014,72.8408325535,,0,,,
2224,,YOGINGR./JAYRAJNAGAR,,19.2348311778,72.8406419028,,0,,,
4629,,SHANTI ASHRAM JN.,,19.241285238,72.8444178464,,0,,,
3785,,SARDAR VALLABHBHAI PATEL COLLEGE,,19.2492493753,72.845747507,,0,,,
3798,,BHAKTI PALACE,,19.2556728193,72.8494609254,,0,,,
1411,,RUSHI COMPLEX EXT.( DAHISAR - W ),,19.2569339812,72.8511631695,,0,,,
4627,,DAHISAR BRIDGE (LINK RD.),,19.2585802793,72.8563499983,,0,,,
4628,,VITTHAL RAKHUMAI MANDIR,,19.2568036453,72.8667024719,,0,,,
1329,,KETAKI PADA,,19.2543306636,72.8666331302,,0,,,
1330,,DAHISAR CHECK NAKA,,19.2555731327,72.8702746386,,0,,,
1315,,DAHISAR BUS STN.,,19.2558619014,72.8700551524,,0,,,
4152,,HIRANANDANI GATE(THANE-W),,19.2486272646,72.9782482644,,0,,,
4151,,THANE MUN.COMMISSIONER HOUSE,,19.2480802944,72.97509649,,0,,,
3922,,PATLI PADA,,19.24646807,72.9759114401,,0,,,
3924,,MANPADA,,19.2352436251,72.9759561223,,0,,,
3926,,TATWADNYAN VIDYAPITH,,19.2227454015,72.9775257529,,0,,,
3928,,KAPUR BAWDI,,19.2195238207,72.9779173554,,0,,,
3929,,MAJIWADA,,19.2146918483,72.977363714,,0,,,
4616,,LODHA PARADISE (COMPLEX),,19.2111435777,72.9831498989,,0,,,
307,,PRATIKSHA NGR.DEPOT,,19.0423689584,72.8729261348,,0,,,
317,,BEST RECIEVING CENTRE,,19.0414764839,72.8703512141,,0,,,
315,,TRANSIT CAMP DISPENSARY,,19.0402188981,72.8692354152,,0,,,
314,,PRATIKSHA NGR NO.1/SAMAJMANDIR HALL,,19.0392047091,72.8667463252,,0,,,
1676,,RAWLICAMP,,19.0375507968,72.8691147608,,0,,,
2359,,SARDAR NGR.NO 1,,19.037611649,72.8653811259,,0,,,
3356,,SARDAR NGR.NO 2,,19.0370951761,72.867218394,,0,,,
5206,,INDIAN HUME PIPE CO.,,19.0175694919,72.8699535558,,0,,,
5204,,DOSTI ACRES,,19.0244401,72.8670558,,0,,,
225,,ANTOP HILL POST OFFICE,,19.0246215402,72.863857291,,0,,,
4922,,JIJAMATA MUNICIPAL SCHOOL,,18.9796927416,72.8391745193,,0,,,
4947,,MAFATLAL MILL,,18.975938,72.837574,,0,,,
3168,,MUSTAFA BAZAR/SAVLYA TANDEL CHK.,,18.9758525258,72.8405370429,,0,,,
3097,,MAHARANA PRATAP CHK.,,18.9682238988,72.8403624352,,0,,,
2716,,DOCKYARD RD.RLY.STN.,,18.965692011,72.8441374502,,0,,,
672,,INSPECTOR KAKLIS CHK.,,18.9635154452,72.8440105873,,0,,,
673,,CENTRAL RLY GOODS,,18.9596800105,72.8431951957,,0,,,
688,,CHINCH BUNDER,,18.9586506468,72.8382947095,,0,,,
689,,DONGRI,,18.9583699768,72.8374607082,,0,,,
4939,,CHAR NAL,,18.9583851971,72.8361947055,,0,,,
3128,,JOHAR CHK.,,18.9581873335,72.8319085355,,0,,,
691,,GOL MANDIR,,18.9581331576,72.8289820798,,0,,,
692,,ALANKAR CINEMA,,18.9580819447,72.8269468518,,0,,,
693,,KHETWADI,,18.9582549199,72.8238322384,,0,,,
3801,,PRARTHANA SAMAJ,,18.9579193716,72.8195920814,,0,,,
2994,,MAHATMA PHULE MARKET,,18.9460691078,72.8351066353,,0,,,
344,,TROMBAY,,19.0335852151,72.950019518,,0,,,
1058,,DHOBI GHAT(TROMBAY),,19.0346400072,72.948646227,,0,,,
357,,CHEETA CAMP,,19.0368867567,72.9458735653,,0,,,
1057,,NARMADESHWAR MANDIR,,19.0385906145,72.9446719357,,0,,,
356,,MANDALA,,19.0409435323,72.9390500256,,0,,,
355,,MANKHURD STN.RD.,,19.04264,72.93041,,0,,,
354,,ANUSHAKTI NGR.,,19.0427942436,72.9265934122,,0,,,
353,,RAJ KAPOOR CHK./ BHABHA HOSPITAL,,19.0436724194,72.9214294134,,0,,,
352,,TELECOM FACTORY,,19.0444431829,72.918382424,,0,,,
350,,DEONAR DEPOT,,19.0457818689,72.9131038366,,0,,,
349,,PANJARAPOL,,19.0457413028,72.9085548102,,0,,,
348,,BASANT TALKIES,,19.0457818689,72.9064519583,,0,,,
347,,WADAVLI VILLAGE/BORLA SOC.,,19.0457818689,72.9044778525,,0,,,
346,,R.C.F.CLY./GOLF CLUB,,19.0461063972,72.9001004873,,0,,,
359,,MAROL MAROSHI BUS STN.,,19.1190482464,72.8802714049,,0,,,
3397,,STATE BANK,,19.1164278022,72.8800058662,,0,,,
366,,MAROL VILLAGE,,19.1122493277,72.8789826118,,0,,,
3046,,MAROLNAKA/MATA RAMABAI AMBEDKAR CHK,,19.108376776,72.8787251197,,0,,,
3045,,MAROLNAKA/MATA RAMABAI AMBEDKAR CHK,,19.1089039349,72.8786822044,,0,,,
364,,MITTAL EST.,,19.1069574935,72.8840680801,,0,,,
363,,DR.DATTA SAMANT CHK./SAKI NAKA,,19.1041391679,72.8867717468,,0,,,
1274,,VIJAY PRINTING PRESS,,19.1011659986,72.8841244608,,0,,,
362,,SAFED POOL,,19.0967047133,72.8836617171,,0,,,
361,,JARIMARI,,19.0943120327,72.8833183943,,0,,,
360,,BAIL BAZAR,,19.0878324095,72.8812462577,,0,,,
3044,,KAMANI,,19.0844019325,72.8846382677,,0,,,
3043,,KAMANI,,19.0851522284,72.8851317941,,0,,,
368,,VIHAR LAKE,,19.140106593,72.8984809219,,0,,,
4590,,RAMADA HOTEL (POWAI),,19.1367514204,72.8984178493,,0,,,
375,,NITIE,,19.1350386442,72.8979659378,,0,,,
3048,,MORARJI NGR.,,19.1296402333,72.8963851993,,0,,,
1202,,P.W.D.OFFICE,,19.1272797609,72.8945099741,,0,,,
3047,,"DR.AMBEDKAR UDN., POWAI",,19.126576,72.893884,,0,,,
4149,,L & T GATE NO.6,,19.1152776743,72.8888451486,,0,,,
2476,,TUNGA VILLAGE,,19.1203997785,72.8910134656,,0,,,
371,,E.S.I.S.LOCAL OFFICE,,19.1171559222,72.8892968518,,0,,,
1168,,JOHN BACKER,,19.1127766153,72.8886102063,,0,,,
370,,CHANDIVLI JN.,,19.1103436169,72.8880952221,,0,,,
369,,STATE BANK,,19.1079105827,72.8882668835,,0,,,
3049,,DR.DATTA SAMANT CHK./SAKI NAKA,,19.1037879245,72.886461069,,0,,,
4649,,ANJANABAI MAGAR/S.SAINIK SURVE CHK.,,19.0759837,72.8776559,,0,,,
258,,DHOBI GHAT/DR.AMBEDKAR NAGAR,,18.911186631,72.8189337116,,0,,,
396,,WORLI DEPOT,,19.0133802422,72.8200516175,,0,,,
701,,MUNICIPAL CLY.,,19.0121251493,72.8202971804,,0,,,
399,,PASSPORT OFFICE,,19.0104572331,72.8204452136,,0,,,
403,,SIDDHIVINAYAK MANDIR,,19.0169232505,72.8298851213,,0,,,
404,,AGAR BAZAR,,19.0181942927,72.8325441,,0,,,
3024,,P.THAKRE CHK.,,19.0190333155,72.8363535698,,0,,,
1260,,POSTAL CLY.,,19.0607766734,72.8925115169,,0,,,
380,,NALANDA SCTY.,,19.0762032635,72.9140551777,,0,,,
327,,GHATKOPAR DEPOT/CASURINA,,19.0875432944,72.9186321159,,0,,,
333,,GHATKOPAR BUS STN./GKD,,19.0879619559,72.9182232873,,0,,,
260,,LAXMI NGR.,,19.0895951893,72.9161728068,,0,,,
259,,NITYANAND NGR.,,19.0912579506,72.9137695475,,0,,,
255,,DARGAH,,19.0951052711,72.9141440467,,0,,,
1023,,GODREJ CO.,,19.105174925,72.9219140002,,0,,,
382,,ASHA & USHA,,19.1082162625,72.9236735294,,0,,,
383,,VIKHROLI STN.RD.(W),,19.1108850181,72.9253614645,,0,,,
384,,CIPLA CO./MILITARY CANTEEN,,19.1143798683,72.9261626193,,0,,,
385,,B.M.C.OFFICE-VIKHROLI,,19.11792,72.925936,,0,,,
386,,HINDUSTAN CO.,,19.1217191255,72.9254759738,,0,,,
387,,GANDHI NGR.,,19.1249223455,72.9251755664,,0,,,
406,,HUMA TALKIES,,19.1323495408,72.9273582945,,0,,,
407,,DOCKYARD CLY.,,19.131452483,72.9269908319,,0,,,
408,,CIBA CO.,,19.1359517458,72.9293518333,,0,,,
409,,BIRLA CO.,,19.1342286173,72.928386238,,0,,,
410,,MANGATRAM PETROLPUMP,,19.1392408919,72.930914375,,0,,,
411,,JANATA MARKET,,19.1418162799,72.9324362462,,0,,,
4408,,ISHWAR NGR.(BHANDUP-W),,19.1438474988,72.9338686732,,0,,,
412,,BHANDUP STN.RD.(W),,19.1457732349,72.9355280396,,0,,,
1871,,BHANDUP STN.RD.,,19.1469185304,72.9365159749,,0,,,
413,,BHANDUP POLICE STN.,,19.151118216,72.9376579771,,0,,,
474,,SHANGRILA CO.,,19.1557319341,72.9374384494,,0,,,
1609,,ASIAN PAINTS,,19.1596885441,72.9376344947,,0,,,
476,,DR.K.B.HEDGEWAR CHK.,,19.1637929814,72.9376023082,,0,,,
2487,,DR.K.B.HEDGEWAR CHK.,,19.163317656,72.9400242822,,0,,,
2393,,FORTIS HOSPITAL,,19.163075,72.940469,,0,,,
2394,,MERIND CO.,,19.1616614546,72.944464885,,0,,,
420,,SARVODAYA PARSHWANATH NGR.,,19.1604225521,72.9461581476,,0,,,
3057,,NAHUR VILLAGE,,19.1620837869,72.9374897114,,0,,,
423,,ST.PIUS SCHOOL,,19.1726327745,72.9515121729,,0,,,
424,,SAIDHAM,,19.1742446087,72.9504501454,,0,,,
1610,,POST & TELEGRAPHS,,19.1693971954,72.9457251809,,0,,,
426,,VIDYABEN GARDI SCHOOL/KESHAVPADA,,19.171444239,72.9478280328,,0,,,
428,,KALIDAS NATYAGRUH,,19.1733291181,72.9496733926,,0,,,
2733,,MAHARSHI ARVIND CHK.,,19.1756395856,72.9519264482,,0,,,
2590,,DNYAN SARITA,,19.1787281949,72.9504608867,,0,,,
3015,,AMBAJI DHAM,,19.1785457941,72.9491734264,,0,,,
2331,,KADAM PADA,,19.1786335215,72.9471658127,,0,,,
2774,,AGARWAL MUNICIPAL HOSPITAL,,19.1785110772,72.9453634756,,0,,,
434,,E.S.I.S.HOSPITAL,,19.1784778957,72.9445733087,,0,,,
435,,VEENA NGR./GOVARDHAN NAGAR,,19.1802416028,72.9459930162,,0,,,
436,,SANTOSHI MATA MANDIR,,19.1819439842,72.9470444422,,0,,,
437,,KEVA FRAGNANS,,19.1845661168,72.948183338,,0,,,
397,,VAISHALI NGR.,,19.187120037,72.9457135417,,0,,,
820,,CHH. SHIVAJI TERMINUS,,18.9391804134,72.8354246596,,0,,,
815,,VASUDEO B.PHADKE CHK.,,18.9432084706,72.8299273106,,0,,,
2628,,VASUDEO B.PHADKE CHK.,,18.9435534944,72.8288436982,,0,,,
440,,S.K.PATIL GARDEN,,18.9495036442,72.8212515923,,0,,,
442,,SUKH SAGAR,,18.9566898631,72.8133107193,,0,,,
4910,,SMT.M.B.DALVI HOSPITAL,,18.9579125349,72.8110474094,,0,,,
444,,NALANDA,,18.9613420664,72.8088333723,,0,,,
448,,LALA LAJPATRAI COLLEGE,,18.9860793579,72.8141182105,,0,,,
451,,JARIMARI MATA MANDIR/S.T.OFFICE,,18.9917489002,72.814065255,,0,,,
524,,POLICE CLY.,,19.004575453,72.8170529078,,0,,,
83,,P.THAKRE CHK.,,19.0215459211,72.8373861789,,0,,,
405,,RANADE RD.,,19.0224993603,72.8382874011,,0,,,
3050,,RAM GANESH GADKARI CHK.,,19.0242817638,72.8397504182,,0,,,
3231,,MAHIM ( PARADISE ),,19.0373794211,72.842185857,,0,,,
4335,,BANDRA TALAO,,19.0560494199,72.8370309984,,0,,,
459,,KHAR TEL.EXCHANGE,,19.0643171341,72.8347731276,,0,,,
461,,RAMKRISHNA MISSION,,19.0751669925,72.8341937705,,0,,,
551,,ARYA SAMAJ MANDIR,,19.0797906414,72.8344727202,,0,,,
132,,SANTACRUZ POLICE STN,,19.0842113781,72.8345156356,,0,,,
467,,BALKANJI BARI SCHOOL,,19.0849616749,72.8319407149,,0,,,
1398,,S.N.D.T.,,19.0852774242,72.8306353384,,0,,,
4213,,MANEKJI COOPER SCHOOL,,19.0879011222,72.8272427576,,0,,,
135,,JUHU TARA,,19.0900311589,72.8274989768,,0,,,
136,,ROYAL HOTEL,,19.0922399166,72.8279186602,,0,,,
470,,PARSI CLY.,,19.1015687255,72.8270483657,,0,,,
3059,,JUHU HOTEL,,19.1048924324,72.8265713445,,0,,,
469,,JUHU BUS STN.,,19.1074884012,72.8267706888,,0,,,
471,,BHARATIYA AROGYA NIDHI HOSPITAL,,19.1121516972,72.829045202,,0,,,
1399,,UTPAL SANGHAVI SCHOOL,,19.1089069929,72.8265284291,,0,,,
2540,,CHANDAN CINEMA,,19.1146058158,72.8266621276,,0,,,
401,,GAMMON HOUSE,,19.0136239807,72.8248450816,,0,,,
4625,,RAM GANESH GADKARI CHK.,,19.0240991927,72.8396914096,,0,,,
3235,,MAHIM ( PARADISE ),,19.0426217372,72.8401756763,,0,,,
2764,,NATIONAL COLLEGE,,19.0635079464,72.8372218725,,0,,,
525,,OLD KHAR,,19.0655773197,72.8372876844,,0,,,
517,,KHAR POLICE STN/SACRED HEART SCHOOL,,19.0743375782,72.8375437376,,0,,,
3061,,VILE PARLE,,19.101550494,72.838895571,,0,,,
3062,,VILE PARLE,,19.1004352985,72.8395178434,,0,,,
3759,,ERLA MASJID,,19.1113638904,72.8373077032,,0,,,
1280,,GAGANDEEP,,19.1147092334,72.8360846159,,0,,,
528,,NEW D.N.NGR.,,19.1199317057,72.8297980284,,0,,,
530,,JEEVAN NGR.,,19.1319163366,72.8315495317,,0,,,
535,,SCOUT CAMP/DNYANSAGAR VIDYALAYA,,19.1461086859,72.8347222699,,0,,,
536,,ANAND NGR.,,19.1504443525,72.8359054391,,0,,,
3033,,BHAGATSINGH NGR./SEJAL PARK,,19.1560002992,72.8356465063,,0,,,
2777,,BEST NGR.,,19.1531846346,72.8402638109,,0,,,
126,,BEST NGR.,,19.1530830382,72.8409788412,,0,,,
4916,,SIDDHARTH NGR.NO.2,,19.1625962477,72.8416282307,,0,,,
538,,VIVEK VIDYALAYA,,19.158541,72.84359,,0,,,
4268,,JAWAHWR NGR.,,19.160035464,72.8459698819,,0,,,
560,,JAWAHAR NGR.,,19.1593174684,72.8478112337,,0,,,
540,,JAIN MANDIR,,19.0845703571,72.9115348405,,0,,,
522,,GOREGAON BUS STN(W),,19.1650686232,72.8484736719,,0,,,
3301,,EKTA SCTY.,,19.1083693954,72.8757827548,,0,,,
2115,,AMBASSADOR HOTEL,,19.1063823964,72.8748815326,,0,,,
587,,SAHAR POLICE STN.,,19.1032193692,72.8735940723,,0,,,
588,,CHH. SHIVAJI INT.AIRPORT(SAHARA),,19.1037622899,72.8777017711,,0,,,
1687,,SAHAR AIR INDIA HOTEL,,19.1031382651,72.8703325061,,0,,,
585,,WAREHOUSE,,19.1010498219,72.8642492561,,0,,,
584,,SAHAR P.& T.CLY.NO 2,,19.1028779235,72.862578083,,0,,,
582,,SAHAR P.& T.CLY.NO 1,,19.1051893771,72.8609902152,,0,,,
581,,CHAKALA CIGARETTE FACTORY,,19.1073791456,72.8591019401,,0,,,
580,,PARSIWADA,,19.1088389751,72.8556687125,,0,,,
3280,,GARWARE CHK.,,19.1036554825,72.8541949421,,0,,,
72,,SUBHASH MARG,,19.1037649891,72.8533077716,,0,,,
70,,HANUMAN SCTY.BLDG NO.5,,19.1037244372,72.8514194965,,0,,,
71,,MATRUCHAYA,,19.1036230575,72.8502393245,,0,,,
80,,PARLE TILAK VIDYALAYA,,19.103149,72.847093,,0,,,
623,,PARLESHWAR MANDIR,,19.1029742255,72.8459477901,,0,,,
664,,VILEPARLE STN(E)/DINANATH NATYAGRUH,,19.1008051991,72.8446422731,,0,,,
4233,,VILE PARLE STN.(E),,19.0986356202,72.8445779001,,0,,,
68,,SATHE COLLEGE,,19.0983715005,72.8460121631,,0,,,
67,,GUJRAT SCTY./DAYALDAS RD.,,19.0971751766,72.8504968165,,0,,,
632,,DOMESTIC AIRPORT JUN.,,19.0951410415,72.8523469611,,0,,,
66,,VILE PARLE SUB-WAY,,19.0913002166,72.8445839533,,0,,,
1103,,MILAN SUB-WAY,,19.0894292768,72.8435230731,,0,,,
578,,NEW AGRIPADA,,19.085541315,72.845785583,,0,,,
79,,VAKOLA POLICE STN.,,19.0809465335,72.8468108817,,0,,,
2746,,VAKOLA POLICE STN(HANUMAN MANDIR),,19.0771202561,72.8470850467,,0,,,
577,,MARATHA CLY.,,19.0735916366,72.847063589,,0,,,
64,,CARDINAL G.SCHOOL/TEACHER'S CLY.,,19.0707817368,72.846843506,,0,,,
63,,KHERWADI JN.,,19.0616975349,72.8462830433,,0,,,
1856,,KALA NGR.,,19.0534226424,72.8453496346,,0,,,
31,,RAM GANESH GADKARI CHK.,,19.0251271702,72.8404614906,,0,,,
4252,,VEER KOTWAL UDN.,,19.0214676544,72.8420903878,,0,,,
550,,KABUTARKHANA,,19.0182583324,72.8395391649,,0,,,
549,,SHARDASHRAM VIDYAMANDIR,,19.0166556991,72.8379298395,,0,,,
1143,,DADAR POLICE STN.,,19.0139932169,72.8347674458,,0,,,
576,,KHEDGALLI/SIDDHIVINAYAK MANDIR,,19.0759837,72.8776559,,0,,,
1080,,PRABHADEVI/RAVINDRA NATYA MANDIR,,19.015571518,72.8297159732,,0,,,
456,,DR.RAVINDRA KULKARNI CHK/SASMIRA,,19.0087936619,72.8193508723,,0,,,
454,,COM.P.K.KURNE CHK.,,19.0060142436,72.8215395549,,0,,,
589,,J.MEHTA MARG,,18.9501044262,72.7954991731,,0,,,
591,,PREM NGR.,,18.9505224478,72.7935080729,,0,,,
592,,NARAYAN DABHOLKAR MARG,,18.952369251,72.7949886523,,0,,,
593,,DARYA MAHAL,,18.954021258,72.7977522286,,0,,,
594,,PETIT HALL,,18.9568624256,72.7997048768,,0,,,
595,,PRIYADARSHANI,,18.9597037937,72.8007916006,,0,,,
596,,PETROL PUMP/MAHESHWARI MANSION,,18.9640668468,72.8032806905,,0,,,
597,,MUKESH CHK.,,18.9647415879,72.8046164306,,0,,,
621,,MUKESH CHK.(UMAR PARK/TATA GARDEN),,18.9652945691,72.8039566072,,0,,,
598,,PARSI GENERAL HOSPITAL,,18.96897014,72.8036809607,,0,,,
599,,BREACH CANDY HOSPITAL,,18.9719125132,72.804775302,,0,,,
600,,MAFATLAL PARK,,18.9746925008,72.8063202544,,0,,,
601,,MAHALAXMI TEMPLE,,18.9763767043,72.8085303946,,0,,,
453,,GANDHI MAIDAN,,19.0026058425,72.81937233,,0,,,
602,,VAKOLA PIPE LINES,,19.080662631,72.8524757071,,0,,,
1642,,VAKOLA MASJID,,19.0817171238,72.8561664267,,0,,,
603,,MILITARY CAMP,,19.0811290421,72.8588057204,,0,,,
1643,,MILITARY OUTPOST,,19.0794459001,72.8597927733,,0,,,
604,,KALINA,,19.0778235785,72.8618527098,,0,,,
3947,,KAPILVASTU BUDDHA VIHAR,,19.0741327375,72.8605867072,,0,,,
605,,VIDYA NGRY,,19.0728145601,72.8612733527,,0,,,
606,,NAFA,,19.0714963722,72.8620029135,,0,,,
607,,AMAR BRASS & STEEL CO.,,19.0727404138,72.8669367944,,0,,,
608,,METRO PLAYING CARDS,,19.073794957,72.8694687998,,0,,,
3067,,KURLA DEPOT,,19.0760730694,72.8769595987,,0,,,
610,,BUDDHA NGR.,,19.0738125345,72.8802753002,,0,,,
611,,LAXMANRAO YADAV MARKET(KURLA MARKET,,19.0702504,72.8792453,,0,,,
590,,KURLA STN (W),,19.0666319246,72.8793608576,,0,,,
2712,,BAHAR CINEMA,,19.1095187118,72.8538690721,,0,,,
2711,,DARPAN CINEMA/ SAI SERVICE,,19.1155532829,72.855069454,,0,,,
2899,,ALLAHABAD BANK,,19.1124709474,72.853166132,,0,,,
2713,,NEW HINDUSTAN DORR,,19.1122689142,72.8567551194,,0,,,
3070,,CHAKALA,,19.1148436739,72.8595541075,,0,,,
3069,,CHAKALA,,19.1144179071,72.8593073443,,0,,,
628,,NELCO,,19.1160720283,72.8617835521,,0,,,
629,,MAROL DEPOT,,19.1179980883,72.8655601024,,0,,,
630,,E.S.I.S HOSP/ MIDC POLICE STN.,,19.0759837,72.8776559,,0,,,
2936,,GAUTAM NGR.,,19.1192135972,72.8702288466,,0,,,
2218,,ORKAY MILL,,19.1211598943,72.870658,,0,,,
3686,,"""C"" CROSS RD.JN.",,19.1228586,72.8718451,,0,,,
620,,SEEPZ BUS STN.,,19.1257095996,72.8732570625,,0,,,
3073,,BORIVLI STN(E),,19.229248975,72.8587306183,,0,,,
2879,,BORIVLI STN(E),,19.2310835664,72.8577574471,,0,,,
3208,,OMKARESHWAR MANDIR,,19.2313763151,72.8624642533,,0,,,
3185,,OMKARESHWAR MANDIR,,19.2301235535,72.8629029885,,0,,,
660,,DEVIPADA,,19.2277984156,72.8631800711,,0,,,
659,,MAGATHANE DEPOT,,19.2212443661,72.8658120629,,0,,,
658,,MAGATHANE TEL.EXCHANGE,,19.2174044881,72.8667783062,,0,,,
657,,DATTANI PARK,,19.2103825008,72.8683062485,,0,,,
656,,MAHINDRA CO. GATE (B.H.A.D.CLY.),,19.2059713752,72.8653062478,,0,,,
655,,BANDONGRI,,19.197738003,72.8600665024,,0,,,
654,,PUSHPA PARK,,19.1915453675,72.8584036924,,0,,,
653,,KURAR VILLAGE,,19.1878110026,72.8583872956,,0,,,
652,,PATHANWADI,,19.1802705082,72.8584892425,,0,,,
3112,,GEN.A.K.VAIDYA MARG JUN.,,19.1748794682,72.8627146511,,0,,,
574,,DINDOSHI BUS STN.,,19.1762321596,72.8646761866,,0,,,
646,,VIRWANI EST./SARVODAYA NGR.,,19.1703670263,72.8588598024,,0,,,
644,,GOREGAON CHECK NAKA NO 1,,19.1661755084,72.8582061784,,0,,,
643,,VANRAI/ MHADA CLY.,,19.1564222138,72.8570573579,,0,,,
642,,MAHANANDA DAIRY,,19.1503821182,72.8565532935,,0,,,
3002,,BIMBISAR NGR.,,19.1465712725,72.8563816321,,0,,,
641,,BALASAHEB THAKRE TRAUMA CE/S.R.P.CA,,19.0759837,72.8776559,,0,,,
640,,JOGESHWARI POLICE STN,,19.138639426,72.8550265598,,0,,,
639,,ISMAIL YUSUF COLLEGE,,19.1307996022,72.8551690828,,0,,,
638,,SHANKARWADI,,19.1258272372,72.855927782,,0,,,
995,,GUNDAVLI/LION'S CLUB,,19.1160404708,72.8550832521,,0,,,
636,,DARPAN CINEMA/ SAI SERVICE,,19.1138655946,72.8546403217,,0,,,
1710,,BAHAR CINEMA,,19.1096889528,72.8539965915,,0,,,
635,,BAHAR CINEMA,,19.108984816,72.853452469,,0,,,
634,,HANUMAN RD.,,19.1018477555,72.854568268,,0,,,
633,,SAMBHAJI NGR.,,19.0988210798,72.8538249301,,0,,,
645,,B.S.E.S.,,19.0833696287,72.8463147449,,0,,,
861,,MADKEBUWA CHK.,,19.0054987546,72.8395809614,,0,,,
545,,HAFFKINE INSTITUTE,,19.0014650656,72.8445123004,,0,,,
544,,PAREL VILLAGE/ST.GORA KUMBHAR CHK.,,19.0003694857,72.8466151523,,0,,,
543,,SEWREE NAKA,,18.9985029257,72.8503917026,,0,,,
541,,P.THAKRE UDN.BUS STN.,,18.9978536825,72.8524730968,,0,,,
665,,FERRY WHARF,,18.9572807823,72.8495255906,,0,,,
667,,MALLET BUNDER,,18.9595068647,72.8459336474,,0,,,
668,,RAILWAY CROSSING,,18.9600040562,72.8439273551,,0,,,
669,,NIRMAN BHAVAN,,18.9659296527,72.8471460059,,0,,,
670,,MAZGAON DOCK,,18.9674273889,72.8463176687,,0,,,
684,,NAWAB TANK MARG,,18.9655398149,72.8453927241,,0,,,
863,,WALKESHWAR,,18.9465861117,72.7957416221,,0,,,
864,,TEEN BATTI,,18.9482503042,72.7981877967,,0,,,
865,,PARSI AGYARI,,18.9489403304,72.7997971221,,0,,,
866,,WHITE HOUSE,,18.9501580166,72.8016853972,,0,,,
867,,SHITAL BAUG,,18.9527752769,72.8050943879,,0,,,
868,,TEEN BAKDA,,18.9547124111,72.8075574464,,0,,,
751,,CHOWPATI BAND STAND,,18.9558912585,72.8089789435,,0,,,
752,,WILSON COLLEGE,,18.9574431694,72.8103568204,,0,,,
845,,GAONDEVI POLICE STN.,,18.960345732,72.8125623748,,0,,,
2861,,NANA CHK.,,18.9621082803,72.8135378341,,0,,,
1049,,GRANT RD BRIDGE,,18.9621488668,72.815833805,,0,,,
807,,DR.BHADKAMKAR RD.,,18.9617820011,72.8173645403,,0,,,
514,,SAIDHAM,,18.9579684073,72.8170568923,,0,,,
666,,PT.PALUSKAR CHK(MARWADI VIDYALAYA),,18.9573619942,72.8170516141,,0,,,
3165,,MAJESTIC CINEMA,,18.9550444951,72.8189416792,,0,,,
4911,,GAIWADI,,18.9543967072,72.8204640496,,0,,,
683,,GAIWADI,,18.9529355197,72.822009002,,0,,,
682,,THAKURDWAR,,18.950824893,72.8232106316,,0,,,
679,,CHIRA BAZAR,,18.9493468285,72.8255130913,,0,,,
680,,PRINCESS STREET,,18.9453655145,72.8277857283,,0,,,
3452,,RLY.ACCIDENT COURT,,18.947584623,72.8401482063,,0,,,
707,,FIRE BRIGADE,,18.9503853109,72.8409206825,,0,,,
676,,LOHA BHAVAN,,18.953835369,72.841736074,,0,,,
675,,PRINCESS DOCK,,18.9557836056,72.8421866852,,0,,,
983,,REKHA SADAN/JAIN MANDIR,,18.9498130064,72.7993250533,,0,,,
982,,MALBAR HILL POST OFFICE,,18.9507262672,72.8005052253,,0,,,
981,,SAHYADRI GUEST HOUSE,,18.9527354233,72.8026080771,,0,,,
980,,KAMLA NEHRU PARK,,18.95531,72.8045,,0,,,
1106,,TEEN BAKDA,,18.9538711698,72.8070255784,,0,,,
4190,,CHAR NAL,,18.9583704733,72.8363037471,,0,,,
3930,,SIDDHIVINAYAK TOWER,,19.2090009867,72.9736441162,,0,,,
4303,,YASHASVI NGR./VARDHAMAN GARDEN,,19.219150281,72.9845843527,,0,,,
4304,,BALKUM NAKA,,19.2210435861,72.9888355504,,0,,,
4462,,BALKUM PADA NO.1,,19.2111872169,72.9939756655,,0,,,
4305,,ASHOK NGR./ VILO'S SCTY.,,19.2154220751,72.9917512152,,0,,,
4301,,DADLANI PARK (THANE-W),,19.2132337409,72.9939398978,,0,,,
712,,WORLI VILLAGE,,19.0160595,72.8179172298,,0,,,
718,,ADARSH NGR.,,19.0142945504,72.8203634044,,0,,,
3089,,BABASAHEB WORLIKAR CHK.,,19.0125498692,72.821500661,,0,,,
3081,,ACHARYA ATRE CHK.,,18.9984289309,72.8179737626,,0,,,
3080,,ACHARYA ATRE CHK.,,18.9977568658,72.8177415469,,0,,,
717,,JIJAMATA NGR.,,18.9927171538,72.8204366523,,0,,,
716,,DAINIK SHIVNER,,18.9958655,72.8226988,,0,,,
3090,,SHREE RAM MILL,,18.9959609084,72.8226816612,,0,,,
715,,SHREE RAM MILL,,18.9983528478,72.8228231965,,0,,,
714,,GOPIKRISHNA PIRAMAL HOSPITAL,,18.9982632519,72.8254478614,,0,,,
713,,DAWN MILL,,18.9981393751,72.8286580114,,0,,,
56,,LOWER PAREL STN.,,18.9958061405,72.831334856,,0,,,
792,,BHARATMATA CINEMA/MAHADEO PALAV MAR,,18.9953561853,72.8351553575,,0,,,
3076,,SHANTARAM PUJARE CHK.,,18.9882505109,72.8365055539,,0,,,
711,,HAKOBA,,18.9881287705,72.8392735937,,0,,,
3075,,REAY RD.BRIDGE,,18.9770909576,72.8439676719,,0,,,
5043,,SWAMI D.SARASWATI CHK.,,18.9342226295,72.8370315034,,0,,,
1752,,SEEPZ VILLAGE,,19.1302905189,72.8768933907,,0,,,
4669,,SEEPZ VILLAGE/REL.ENGY. TR.CENTRE,,19.1293579726,72.8836740151,,0,,,
1940,,"I.E.S.SCHOOL,JVLR",,19.129899,72.919199,,0,,,
3647,,MILIND NGR.,,19.1255466416,72.8932870522,,0,,,
372,,"DR.AMBEDKAR UDN., POWAI",,19.126576,72.893884,,0,,,
2526,,HIRANANDANI,,19.1195861923,72.904359211,,0,,,
1181,,PUNCHKUTIR/GANESH MANDIR,,19.123783,72.9097,,0,,,
5055,,GATE WAY PLAZA,,19.1237395262,72.9135841804,,0,,,
1180,,I.I.T.MAIN GATE,,19.1250439855,72.9165066669,,0,,,
1179,,I.I.T.MARKET,,19.1275578597,72.9189099261,,0,,,
4690,,GANDHI NGR.,,19.1253365701,72.9232931542,,0,,,
4250,,GANDHI NGR.,,19.1254869612,72.9240081524,,0,,,
491,,RALLI WOLF,,19.1714654448,72.9407538431,,0,,,
3546,,MAHARANA PRATAP CHK.(MULUND),,19.1841023354,72.9535139303,,0,,,
4052,,M.I.D.C./ PASS-PORT OFFICE,,19.1944189446,72.9511461577,,0,,,
4691,,AMBIKA NGR.,,19.19481219,72.9498147059,,0,,,
4692,,E.S.I.S.HOSPITAL (THANE),,19.2013507367,72.9590472706,,0,,,
4699,,VEER SAWARKAR NGR.,,19.1962003201,72.9448554802,,0,,,
4734,,YASHODHAN NAGAR,,19.2093027607,72.9517652643,,0,,,
4693,,RUNWAL PLAZA,,19.215045306,72.9557030485,,0,,,
4694,,VARTAK NGR.,,19.2093534287,72.962486884,,0,,,
4695,,SHASTRI NGR.(THANE),,19.2159376024,72.9562198888,,0,,,
4696,,LAXMINARAYAN RESIDENCY,,19.2199892243,72.9648969459,,0,,,
4697,,GLAXO CO.,,19.2209212578,72.9630945015,,0,,,
4698,,GANDHI NGR.,,19.2191382326,72.970518856,,0,,,
4436,,VASANT-VIHAR,,19.2265473663,72.9700728178,,0,,,
4444,,MAHARASHTRA NGR.(THANE),,19.2370826687,72.9695578336,,0,,,
4433,,PAWAR NGR.BUS STN.(THANE),,19.2395137964,72.9699011564,,0,,,
3748,,IMAX ADLABS,,19.0310268563,72.8804830411,,0,,,
3750,,BHAKTI PARK COMPLEX,,19.0257527137,72.8787020543,,0,,,
662,,SHARDA CINEMA,,19.0139557342,72.8465237334,,0,,,
4614,,BUSA UDYOG BHAVAN,,18.9981865291,72.850179386,,0,,,
740,,SEWREE STN.(W),,18.9980133058,72.8540356141,,0,,,
739,,SEWREE NAKA,,18.9891577466,72.8462955474,,0,,,
3268,,SEWREE COURT,,18.993175108,72.8511449813,,0,,,
738,,SEWREE RLY.PHATAK,,18.9960561863,72.8529045104,,0,,,
725,,SWAN MILLS,,18.996461968,72.8493210791,,0,,,
724,,JUBILEE MILLS,,18.9937432119,72.8485700606,,0,,,
3799,,DOCKYARD RLY.STN.,,18.9661384521,72.8442769251,,0,,,
734,,REAY RD.BRIDGE,,18.9760554414,72.8441848471,,0,,,
735,,MAFATLAL MILL,,18.9773033667,72.8414704516,,0,,,
3234,,MAHIM ( PARADISE ),,19.0371459309,72.8422639351,,0,,,
3233,,MAHIM,,18.9888317017,72.8282830072,,0,,,
36,,MAHIM BUS STN.,,19.042929316,72.8405178289,,0,,,
2371,,MAHIM PHATAK,,19.0448194248,72.8445281699,,0,,,
2369,,MACCHIMAR NGR/RAHEJA HOSPITAL,,19.0455956719,72.8417785575,,0,,,
3372,,BANWARI COMPOUND,,19.0454786261,72.8468026831,,0,,,
1665,,DHARAVI DEPOT,,19.0517011671,72.8592997549,,0,,,
146,,NEW NAGPADA,,18.9688832693,72.8330791588,,0,,,
16,,NEW NAGPADA,,18.9681527406,72.8329718705,,0,,,
3083,,A.H.ANSARI CHK.,,18.9711812627,72.8321525124,,0,,,
754,,CHRIST CHURCH SCHOOL,,18.9693766069,72.8297276579,,0,,,
755,,ALEXANDRA CINEMA,,18.9671402535,72.8281346112,,0,,,
483,,MUMBAI CENTRAL DEPOT,,18.9685071128,72.8224398713,,0,,,
485,,MUMBAI CENTRAL STN.,,18.9688476504,72.8197714356,,0,,,
1763,,MUMBAI CENTRAL STN.(ON BRIDGE),,18.9690245698,72.8180625062,,0,,,
3085,,VASANTRAO NAIK CHK.,,18.9685991752,72.8150332566,,0,,,
3086,,VASANTRAO NAIK CHK.,,18.9692891171,72.8161490555,,0,,,
502,,BHATIA HOSPITAL,,18.9650101888,72.8129584769,,0,,,
501,,NANA CHK.,,18.9623112126,72.8133661727,,0,,,
2183,,NANA CHK.,,18.9618907606,72.8129220454,,0,,,
758,,AUGUST KRANTI MAIDAN,,18.9631181462,72.8105172905,,0,,,
771,,B.P.T.HOSPITAL,,19.0124186595,72.8624829935,,0,,,
770,,B.P.T.CLY.,,19.011482968,72.8621459733,,0,,,
769,,GODREJ FOODS CO./VEG.OILS,,19.0096571075,72.8614593278,,0,,,
3240,,KARTVYA NGR.,,19.0068979915,72.8576398622,,0,,,
3239,,I.B.P.CO.,,19.0041388296,72.8557086717,,0,,,
3238,,SEWREE RLY.PHATAK,,18.9998782693,72.8554082643,,0,,,
1659,,SEWREE STN.(E),,18.997788526,72.8545714151,,0,,,
764,,B.P.T.CLY.,,18.9920897302,72.8519258188,,0,,,
763,,C & D SHED,,18.9857186765,72.8486642526,,0,,,
762,,GOODS SHED,,18.9806865891,72.8464326547,,0,,,
2240,,REAY RD.STN.(ON BRIDGE),,18.9761997397,72.8450442086,,0,,,
3079,,ACHARYA ATRE CHK.,,18.9977604374,72.8179463045,,0,,,
700,,JIJAMATA NGR.,,18.9935402188,72.8201884935,,0,,,
3087,,DAINIK SHIVNER,,18.9958655,72.8226988,,0,,,
3078,,SHREE RAM MILL,,18.9969894573,72.8224953309,,0,,,
3077,,SHANTARAM PUJARE CHK.,,18.9883316711,72.8358189084,,0,,,
4952,,GHODAPDEV,,18.9803420556,72.8424360854,,0,,,
4948,,JIJAMATA UDN,,18.9805043837,72.8369429214,,0,,,
4943,,JIJAMATA UDN.,,18.9798550703,72.8340246779,,0,,,
3844,,A.H.ANSARI CHK./ NEW NAGPADA,,18.9689665372,72.8331399913,,0,,,
1837,,MANKHURD STN.( NORTH ),,19.0491285423,72.9315184986,,0,,,
2640,,MAHARASHTRA NGR.,,19.0518261044,72.9374797522,,0,,,
1028,,MANKHURD OCTROI NAKA,,19.0583873045,72.956328932,,0,,,
1029,,VASHI VILLAGE,,19.0689295804,72.9867397636,,0,,,
1030,,Y.B.CHAVAN MARG JN.,,19.0686621916,72.9965312658,,0,,,
1031,,APNA BAZAR,,19.0707905256,72.9975664395,,0,,,
1032,,VASHI BUS STN.,,19.0749324134,72.9976831764,,0,,,
3427,,COLABA BUS STN.,,18.9112790953,72.8210592755,,0,,,
1354,,BANDRA TALKIES,,19.0595583115,72.8370062771,,0,,,
1088,,MOTI MAHAL,,19.0592741922,72.8354645883,,0,,,
3965,,PALI HILL NAKA,,19.0595484243,72.830405595,,0,,,
1089,,PALI HILL NAKA,,19.0597512377,72.8286460659,,0,,,
1090,,D'MONTE GARDEN,,19.0596295497,72.8255990764,,0,,,
1091,,PERI CROSS RD.,,19.0601974264,72.8231314441,,0,,,
1092,,ADDL.C.P.OFFICE,,19.0624283518,72.8224447986,,0,,,
1093,,RIZVI COMPLEX(CARTER RD.),,19.0650040193,72.8231529018,,0,,,
1094,,RIZVI COLLEGE,,19.0672754409,72.82261646,,0,,,
1095,,SHERLEY VILLAGE,,19.0702769145,72.8224447986,,0,,,
1097,,KHAR DANDA,,19.0748398615,72.8229383251,,0,,,
1098,,DANDPADA,,19.0750832152,72.8262857219,,0,,,
2937,,DR.AMBEDKAR CLY./18TH RD KHAR,,19.0738461638,72.8293970844,,0,,,
1100,,16TH RD/KHAR,,19.0731566557,72.8310278675,,0,,,
2938,,KHAR 14TH RD,,19.0722237873,72.833152177,,0,,,
2903,,LOKMANYA TILAK TERMINUS,,19.0675305555,72.8890013975,,0,,,
3807,,MUNICIPAL LIBRARY,,19.0672263495,72.8916621489,,0,,,
3806,,TILAK NGR.RLY.STN.,,19.0661514839,72.8901601118,,0,,,
3800,,SARVODAY MAHABUDDHA VIHAR,,19.0676725181,72.8927994055,,0,,,
1787,,MUNICIPAL SCHOOL,,19.0673885927,72.8948378843,,0,,,
3805,,LOKMANYA TILAK VIDYALAYA,,19.0664556919,72.8968334478,,0,,,
3803,,RELIENCE ENERGY OFFICE,,19.0675711162,72.8985071463,,0,,,
1785,,SAHAKAR TALKIES,,19.0684634503,72.8995371145,,0,,,
321,,AMAR MAHAL,,19.066192045,72.8996014875,,0,,,
4220,,VEER KOTWAL UDN.(NEAR UDYAN),,19.0211075773,72.8418060737,,0,,,
2425,,JIJAMATA BHOSLE MARG JN.,,19.069988548,72.9083503381,,0,,,
3375,,INDIAN OIL NGR.,,19.063863851,72.9125989571,,0,,,
1024,,SHIVAJI NGR.JN.,,19.0622819389,72.9172338143,,0,,,
4490,,BAINGANWADI,,19.0594425715,72.9234136239,,0,,,
1025,,B.M.C.COMPOST PLANT,,19.057373859,72.9271043435,,0,,,
1027,,MOHITE PATIL NGR.,,19.0534126219,72.9352758743,,0,,,
2642,,MAHARASHTRA NGR.,,19.0514672069,72.9376848579,,0,,,
2641,,MAHARASHTRA NGR.,,19.051994547,72.9364832283,,0,,,
4594,,VASHI JUN.-Y.B.CHAVAN MARG JN.,,19.0686504754,72.9972530203,,0,,,
1033,,SSC BOARD OFFICE/ST.LAWRENCE SCHOOL,,19.0741783254,73.0015952765,,0,,,
1966,,B.A.P.MARKET,,19.0737478536,73.0101160933,,0,,,
1036,,I.C.L.SCHOOL,,19.0731597437,73.0171112944,,0,,,
1038,,TURBHE NAKA (JANTA MARKET),,19.0720240771,73.0190854002,,0,,,
4109,,JUINGR.RLY.STN.,,19.055927584,73.0154417373,,0,,,
1042,,SHIRAVANE VILLAGE,,19.0514793365,73.0205874373,,0,,,
1047,,NERUL NAKA,,19.0464492393,73.0250506331,,0,,,
1955,,URAN PHATA,,19.0391919556,73.0288720635,,0,,,
4041,,C.B.D.BELAPUR/KONKAN BHAVAN,,19.0239378042,73.0402017144,,0,,,
4029,,BHARATI VIDYAPITH (H'WAY),,19.0249958349,73.0555742242,,0,,,
4027,,BELPADA,,19.0323390519,73.0657880761,,0,,,
4028,,HIRANANDANI COMPLEX JUN.,,19.0363148018,73.0710237481,,0,,,
4030,,KOPARA VILLAGE,,19.0357232,73.0741001,,0,,,
4031,,GHARKUL,,19.0364770753,73.0802934624,,0,,,
4032,,TALOJA PHATA,,19.032744745,73.0856149651,,0,,,
4033,,KAMOTHE VILLAGE/MANSAROVAR,,19.0272272335,73.0938547112,,0,,,
4034,,KALAMBOLI CLY.,,19.0231701229,73.1000345208,,0,,,
3353,,BANDRA TALAO,,19.056678154,72.8366447603,,0,,,
5172,,MOHD.ESTATE,,19.0759837,72.8776559,,0,,,
5106,,SAHAKAR NAGAR,,19.0657236081,72.891542962,,0,,,
1034,,SHIV CENTRE,,19.0737727336,73.0062301336,,0,,,
1040,,TURBHE POLICE STN.,,19.0622535115,73.0190189062,,0,,,
1041,,JUINGR.STN.( HERDILLA CO.),,19.0559413919,73.0191283156,,0,,,
2992,,FISHER ROSE MOUNT CO.,,19.0445154783,73.0264765603,,0,,,
1960,,TATA PRESS,,19.0425365509,73.0280740438,,0,,,
1954,,C.B.D. BELAPUR BUS STN.,,19.0229193414,73.04959821,,0,,,
204,,K.E.M.HOSPITAL,,19.0017326072,72.8410046737,,0,,,
823,,DR.SHIRODKAR HIGH SCHOOL,,18.9987907608,72.8396957557,,0,,,
3088,,BHARATMATA CINEMA/MAHADEV PALAV MG,,18.9952750285,72.8351580397,,0,,,
3096,,SHREE RAM MILL,,18.9982514037,72.8220560847,,0,,,
3091,,SHREE RAM MILL,,18.9984148812,72.8215101112,,0,,,
1667,,DAINIK SHIVNER,,18.9958655,72.8226988,,0,,,
1666,,JIJAMATA NGR.,,18.9925924247,72.8206413428,,0,,,
3092,,ACHARYA ATRE CHK.,,18.9984999418,72.8178181944,,0,,,
746,,BABULNATH,,18.9563884608,72.8081850096,,0,,,
2286,,A.T.I.,,19.0531882725,72.8810716401,,0,,,
5076,,WADALA TRUCK TERMINAL,,19.0362112582,72.8774474079,,0,,,
351,,PUNJAB WADI,,19.0453762076,72.9156787573,,0,,,
3379,,ANUSHAKTI NGR.BUS STN.,,19.0426831117,72.9263530885,,0,,,
2714,,AGARWADI,,19.0456601706,72.9256351172,,0,,,
388,,TAGORE NGR.JN.,,19.1249091717,72.9328594422,,0,,,
4397,,GANDHI NGR.,,19.1249497184,72.9300699448,,0,,,
4682,,SEEPZ VILLAGE,,19.1295984557,72.8763961163,,0,,,
1754,,KAMAL AMROHI STUDIO,,19.135561334,72.8738464013,,0,,,
1200,,GREEN FIELDS,,19.1396849967,72.8692406902,,0,,,
1172,,MAJAS DEPOT/SHYAM NGR.,,19.1392187507,72.8654855975,,0,,,
1386,,PRATAP NGR.(MAJAS),,19.1408834312,72.8566166378,,0,,,
3199,,BORIVLI STN(E),,19.2287548328,72.8574637042,,0,,,
3205,,BORIVLI STN(E),,19.2304060614,72.8577533828,,0,,,
2374,,MAHIM BUS STN.,,19.0431499142,72.8403756599,,0,,,
826,,KHODADAD CIRCLE (DADAR WORKSHOP),,19.016389371,72.8499293115,,0,,,
473,,WADALA DEPOT,,19.0146419145,72.8532377903,,0,,,
825,,BEST CLY.,,19.0126003637,72.8538188915,,0,,,
741,,MADHAV NGR.,,19.0117483037,72.8527460079,,0,,,
808,,GANESH TALKIES,,18.9883250885,72.8336486797,,0,,,
55,,COM.GULABRAO GANACHARYA CHK.,,18.990566315,72.8315282344,,0,,,
489,,KASTURBA GANDHI HOSPITAL,,18.9834335277,72.8288229372,,0,,,
488,,SANT GADGE MAHARAJ CHK.,,18.9807147725,72.8264425017,,0,,,
487,,AGRIPADA POLICE STN.,,18.9784013713,72.8244241144,,0,,,
486,,NAIR HOSPITAL,,18.974424237,72.8232010271,,0,,,
3012,,MUMBAI CENTRAL STN./RESERVE BANK,,18.9695541473,72.8210767176,,0,,,
3011,,MUMBAI CENTRAL STN.,,18.9686004047,72.8206046488,,0,,,
822,,MINERVA TALKIES,,18.9657391443,72.8190382387,,0,,,
3099,,PT.PALUSKAR CHK.,,18.9566071337,72.8156693842,,0,,,
3098,,PT.PALUSKAR CHK.,,18.9569582615,72.8153905198,,0,,,
695,,CENTRAL TALKIES,,18.9550444951,72.8190811541,,0,,,
992,,MIRA RD.STN.(E),,19.2822563217,72.85811987,,0,,,
4478,,SHITAL GARDEN,,19.2854795876,72.8614837112,,0,,,
2058,,S.K.STONE,,19.2871288197,72.8670767897,,0,,,
1011,,SILVER PARK,,19.282012,72.8739480817,,0,,,
2749,,GREEN LAWN ACADEMY,,19.27796359,72.8791497888,,0,,,
3933,,KASHIMIRA,,19.2751183309,72.8868729842,,0,,,
4852,,WESTERN HOTEL/LAXMI BAUG,,19.2796284745,72.8915147577,,0,,,
4856,,GHODBUNDER VILLAGE JN.,,19.2857959291,72.895977402,,0,,,
3908,,JAIN MANDIR,,19.2848219296,72.9011412597,,0,,,
3909,,VERSOVA BRIDGE,,19.2848826905,72.904789064,,0,,,
3910,,CHENA BRIDGE,,19.2745327525,72.915324781,,0,,,
3911,,KAJUPADA,,19.2787457221,72.9222770668,,0,,,
3912,,GAIMUKH,,19.2852877629,72.9363103843,,0,,,
3913,,BHAYANDER PADA,,19.2835864523,72.9524894691,,0,,,
3914,,OVALE VILLAGE,,19.2749581053,72.959892366,,0,,,
3916,,KASARVADAVLI,,19.270623506,72.9647847152,,0,,,
3917,,ANAND NGR.,,19.2671782376,72.966523863,,0,,,
3918,,MRUCHHALA COLLEGE,,19.2656406007,72.9674240089,,0,,,
3961,,VIJAY GARDEN,,19.2623996053,72.9682823158,,0,,,
3920,,WAGHBIL,,19.2534055076,72.9719730354,,0,,,
3959,,BRAHMAND-AZAD NGR.,,19.2421216742,72.9757710433,,0,,,
484,,MARATHON CHK.(TEEN HATH NAKA),,19.1880886814,72.9635324596,,0,,,
3971,,MULUND-W CHECK NAKA BUS STN.,,19.1835445097,72.9534138696,,0,,,
494,,MULUND-W CHECK NAKA BUS STN.,,19.1828554594,72.9539288537,,0,,,
481,,MUNICIPAL SCHOOL,,19.1804312142,72.953901905,,0,,,
480,,MULUND SONAPUR,,19.1772088048,72.9534298362,,0,,,
2460,,DHANVANTARI HOSPITAL,,19.1778790383,72.9514371423,,0,,,
3609,,MULUND RLY.STN.(W),,19.1727905561,72.95671286,,0,,,
2883,,MULUND RLY.STN.(W),,19.1726284163,72.9558760108,,0,,,
3017,,MAHARSHI ARVIND CHK.,,19.1758509153,72.9516273917,,0,,,
1256,,MAHARSHI ARVIND CHK.,,19.1756685113,72.9523784102,,0,,,
2458,,MULUND DEPOT,,19.1756902049,72.9469149379,,0,,,
3104,,P.THAKRE CHK.,,19.0192006775,72.8360876041,,0,,,
3103,,P.THAKRE CHK.,,19.0190891029,72.8365145024,,0,,,
60,,JAKHADEVI/ DADAR POLICE STN.,,19.0133907494,72.8336954593,,0,,,
3121,,PAREL S.T.DEPOT/SANT ROHIDAS CHK.,,19.0110226958,72.8318395005,,0,,,
78,,PAREL S.T.DEPOT/SANT ROHIDAS CHK.,,19.0093130135,72.8332019328,,0,,,
82,,PAREL S.T.DEPOT/SANT ROHIDAS CHK.,,19.0099824994,72.8311849116,,0,,,
191,,DHANMILL NAKA,,19.008643525,72.8308201312,,0,,,
3135,,DEEPAK CINEMA,,19.0031164725,72.8300368532,,0,,,
57,,DEEPAK CINEMA,,19.005769303,72.8309059099,,0,,,
775,,LOWER PAREL WORKSHOP,,18.9973984194,72.8312713393,,0,,,
830,,BAWLA MASJID,,18.9930822284,72.8314424037,,0,,,
54,,N.M.JOSHI MARG POLICE STN.,,18.9863670871,72.8316745739,,0,,,
3023,,COM.GULABRAO GANACHARYA CHK.,,18.9865286003,72.8317213534,,0,,,
829,,S BRIDGE/MANDLIK CHK.,,18.9796906391,72.8320003032,,0,,,
77,,BYCULLA STN.(W),,18.9742858639,72.8320587558,,0,,,
2525,,A.H.ANSARI CHK.,,18.9740612411,72.8334064195,,0,,,
3102,,VASANTRAO NAIK CHK.,,18.9690338385,72.8155827967,,0,,,
2815,,VASANTRAO NAIK CHK.,,18.9691397408,72.8157207947,,0,,,
4338,,VATSALABAI DESAI CHK,,18.9772021045,72.8095412893,,0,,,
504,,AIR CONDITION MARKET,,18.9727988113,72.8146010081,,0,,,
215,,DON BOSCO/KHALSA COLLEGE,,19.0254282429,72.8570795406,,0,,,
852,,V.J.T.I.COLLEGE,,19.0222636709,72.8569078792,,0,,,
304,,WADALA CHURCH,,19.0193273678,72.8561257924,,0,,,
1162,,VITTHAL MANDIR / WADALA MARKET,,19.0178562959,72.8546949235,,0,,,
851,,CHITRA CINEMA,,19.0150620163,72.8454923976,,0,,,
849,,SHARDA CINEMA,,19.0141741156,72.8460688808,,0,,,
847,,SPRING MILL/HINDMATA CINEMA,,19.011075263,72.848478935,,0,,,
5169,,APANA BAZAR,,19.007854,72.844479,,0,,,
5170,,BHOIWADA POLICE STN.,,19.0759837,72.8776559,,0,,,
871,,NAIGAON POLICE CLY.,,19.0079662087,72.8471846798,,0,,,
5161,,BHOIWADA/TATA ANNEX,,19.0759837,72.8776559,,0,,,
5167,,TATA HOSPITAL,,19.0037208601,72.8422492186,,0,,,
3809,,MUMBAI CENTRAL STN.,,18.9688759396,72.8206560592,,0,,,
3810,,MUMBAI CENTRAL STN.(ON BRIDGE),,18.9689266706,72.8184888344,,0,,,
3815,,NAVJEEVAN SCTY.,,18.967120636,72.8141865711,,0,,,
3106,,VASANTRAO NAIK CHK.,,18.968662869,72.815109251,,0,,,
856,,BABULNATH TEMPLE,,18.9578800586,72.8090433165,,0,,,
855,,WILSON COLLEGE,,18.9568450738,72.8102234885,,0,,,
859,,TARDEO BUS STN/RUSHI MEHTA CHK.,,18.9647092991,72.8206617915,,0,,,
860,,SHUKLAJI STREET,,18.9663022862,72.8245885455,,0,,,
2285,,PRIYADARSHINI,,19.0525373,72.8801425,,0,,,
2111,,WADALA TRUCK TERMINAL,,19.0366233691,72.8753652677,,0,,,
513,,BALLARD PIER,,18.9334492231,72.8420878033,,0,,,
2238,,NATURE PARK/P.M.G.P.CLY.,,19.0516403201,72.8624754904,,0,,,
3610,,JAIHIND CINEMA,,18.9837747642,72.8353510825,,0,,,
869,,PHOENIX CHEMICALS,,18.9851416694,72.837087777,,0,,,
870,,AZAD FLOUR MILL,,18.9867243161,72.8388473061,,0,,,
5165,,DADASAHEB SARFARE CHK.,,19.0759837,72.8776559,,0,,,
931,,MAHIM PHATAK,,19.0433657726,72.8452337428,,0,,,
777,,MAHIM STN.( W ),,19.0403029609,72.8465533896,,0,,,
913,,SARASWATI VIDYA MANDIR,,19.0351102503,72.8476906463,,0,,,
912,,MATUNGA STN.(W),,19.0286799892,72.8467035933,,0,,,
911,,RUPAREL COLLEGE,,19.0252270116,72.8454794552,,0,,,
910,,GIRLS SCHOOL,,19.0244054448,72.8452219631,,0,,,
909,,ZARAPKAR STORES,,19.0233297005,72.8448475047,,0,,,
908,,DADAR STN.-W,,19.019276751,72.8426513966,,0,,,
907,,MHATRE PEN CO.,,19.016204167,72.8399658843,,0,,,
906,,KAMGAR STADIUM,,19.0128162618,72.8367472335,,0,,,
547,,PAREL S.T.DEPOT/SANT ROHIDAS CHK.,,19.0093144166,72.8332590801,,0,,,
4659,,BALKRISHNA R.GAWADE CHK.,,19.004990944,72.83096334,,0,,,
905,,KAMLA MILL,,19.0029722739,72.8299333717,,0,,,
904,,TODDY CO / EMPIRE DYEING,,19.001065166,72.8289570477,,0,,,
781,,K.V.YADAV CHK.,,18.9995682811,72.8281212493,,0,,,
780,,PHOENIX MILL,,18.994809588,72.8255180083,,0,,,
3741,,RAGHUVANSHI MILL,,18.9913124326,72.8239430771,,0,,,
699,,AMBIKA MILL B.STN/ H.U.RAKHANGI CHK,,18.9889182323,72.8226127015,,0,,,
698,,FAMOUS STUDIO,,18.9858894489,72.8240643782,,0,,,
697,,MAHALAXMI STN.,,18.9819342689,72.8252525041,,0,,,
3528,,SANT GADGE MAHARAJ CHK.,,18.9804304849,72.8261192705,,0,,,
3527,,SANT GADGE MAHARAJ CHK.,,18.9807957227,72.8275354769,,0,,,
902,,INCOME TAX OFFICE,,18.9405426334,72.8266724404,,0,,,
3262,,AHILYABAI HOLKAR CHK.,,18.9333194533,72.8277272066,,0,,,
3120,,HUTATMA CHK. (PAY & PARK),,18.9287433664,72.829677513,,0,,,
647,,GEN.A.K.VAIDYA MARG JUN.,,19.1739864855,72.8593741693,,0,,,
1588,,NANCY CLY.,,19.2372502443,72.8633653004,,0,,,
3932,,GARTAN PADA,,19.2504005612,72.8666832328,,0,,,
1006,,GOLDEN CHEMICALS,,19.2586801738,72.8721116724,,0,,,
1008,,TRANSPORT CORPN,,19.2681321557,72.8778277392,,0,,,
1009,,KASHIMIRA,,19.2731834589,72.8824971857,,0,,,
2578,,JAMMU & KASHMIR BANK,,19.2851740324,72.8682492914,,0,,,
2577,,SHEETAL SAROVAR,,19.2834992447,72.863693347,,0,,,
3599,,BHAYANDER STN.(E),,19.3110665452,72.8531550562,,0,,,
2061,,BHAYANDER STN.(E),,19.3122005638,72.853884617,,0,,,
2066,,NAVGHAR NAKA,,19.3085048494,72.8616308367,,0,,,
2064,,GODDEV NAKA,,19.3042622689,72.858991543,,0,,,
2062,,BHAYANDER PHATAK (POLICE CHKY),,19.0759837,72.8776559,,0,,,
2751,,SWATANTRYAVEER SAVARKAR CHK-BHY(E),,19.2953109743,72.8583478128,,0,,,
5188,,PRIYADARSHINI,,19.0525373,72.8801425,,0,,,
3518,,TATA CLY.,,19.0622536582,72.8578329345,,0,,,
3517,,PATTHAR NGR.,,19.0629634925,72.8559446594,,0,,,
3743,,MAHARASHTRA NGR.,,19.0615641019,72.8539705536,,0,,,
1357,,BHARAT NGR.,,19.0612193227,72.8512454292,,0,,,
957,,KHERWADI POLICE STN,,19.0655957571,72.8475081876,,0,,,
956,,G.S.CLY.,,19.0622162949,72.8477401143,,0,,,
4316,,KHERWADI,,19.061039991,72.847697199,,0,,,
305,,RANI LAXMIBAI CHK/ROOPAM CINEMA,,19.0416930156,72.8647949577,,0,,,
4471,,MANTRALAYA,,18.9292625297,72.824401497,,0,,,
988,,SAMRAT HOTEL,,18.9316102836,72.8269606607,,0,,,
3263,,AHILYABAI HOLKAR CHK.,,18.9325084892,72.8276842149,,0,,,
901,,AHILYABAI HOLKAR CHK.,,18.9328656479,72.8279718602,,0,,,
3444,,S.K.PATIL GARDEN,,18.9497842282,72.8209175722,,0,,,
1127,,VATSALABAI DESAI CHK.,,18.9763337385,72.8121751698,,0,,,
1149,,GOVT.CLY./INDIAN.MEDICAL.ASSN.CHK,,18.9787734289,72.81527406,,0,,,
1128,,MAHALAXMI RACE COURSE/ZENITH HOUSE,,18.9805141104,72.8221578043,,0,,,
3472,,MAHALAXMI STN.,,18.9822179513,72.8234616312,,0,,,
3475,,SHANTARAM PJJARE CHK.,,18.9883250885,72.8361549359,,0,,,
4761,,JUBILEE MILLS,,18.9939757717,72.8486658317,,0,,,
4762,,SWAN MILLS,,18.9964873293,72.849280846,,0,,,
4763,,SEWREE NAKA,,18.9987234147,72.8504468185,,0,,,
4809,,P.THAKRE UDYAN BUS STN.,,18.9981617711,72.8524824077,,0,,,
4537,,P.THAKRE NGR BUS.STN.,,19.2213456736,72.8288347397,,0,,,
959,,P.THAKRE NGR BUS.STN.,,19.220673614,72.8286804114,,0,,,
979,,SAIBABA MANDIR,,19.2182545352,72.8287385767,,0,,,
978,,P.THAKRE NGR MARKET,,19.2154988979,72.8284810846,,0,,,
977,,BANK OF MAHARASTHRA,,19.212776674,72.8283069909,,0,,,
976,,SAHYADRI NGR.,,19.2103804136,72.8289164458,,0,,,
975,,HINDUSTAN NAKA/C.CHARANSINGH CHK.,,19.2075281158,72.8294141416,,0,,,
974,,KANDIVLI INDU EST./ GANESH NGR.,,19.2047699664,72.828314069,,0,,,
3566,,EKTA NGR.,,19.200502645,72.8237228226,,0,,,
3862,,ASMITA JYOTI,,19.1972618987,72.8277086084,,0,,,
567,,EVERSHINE NGR.,,19.19362,72.83436,,0,,,
2987,,NIRLON SCTY.,,19.1766150638,72.8369968194,,0,,,
3646,,INORBIT MALL,,19.1724548163,72.8360687206,,0,,,
1462,,BANGUR NGR POLICE CHKY/POST OFFICE,,19.1630761537,72.8347223061,,0,,,
2173,,BHAGATSINGH NGR.,,19.1559413149,72.835156885,,0,,,
5099,,ADARSH NAGAR,,19.1459757496,72.8324772269,,0,,,
3541,,ADV. PALJIBHAI BORICHA CHK.,,19.1417109834,72.8293471579,,0,,,
961,,ORIENTAL BANK/ S.SAMARTH NGR MARKET,,19.141007274,72.8276722485,,0,,,
962,,ZULELAL CHK.,,19.1401489787,72.8264181508,,0,,,
960,,MAHARASHTRA BANK,,19.139278411,72.8256564383,,0,,,
617,,TELEPHONE EXCHANGE,,19.1341537631,72.825656813,,0,,,
616,,R.T.O./NEW VIKAS HSG SOC,,19.1302178718,72.825672687,,0,,,
3373,,FOUR BANGALOWS,,19.1297320297,72.8221049425,,0,,,
2539,,BABULNATH TEMPLE,,18.9572204217,72.8086162253,,0,,,
2370,,MAHIM PHATAK,,19.0432237892,72.845287387,,0,,,
458,,NATIONAL COLLEGE,,19.0622964519,72.8356403624,,0,,,
986,,SHASTRI NGR.,,19.0845291432,72.8345120314,,0,,,
759,,GODREJ CHK.,,18.9640719201,72.8078779968,,0,,,
3433,,IRANI BRIDGE,,18.9598258042,72.8142731698,,0,,,
3281,,WORLI SEA FACE (N),,19.0124373942,72.8169390517,,0,,,
987,,WORLI SEA FACE (N),,19.0162916578,72.8184063946,,0,,,
1077,,NATIONAL ASSO.FOR BLIND(NAB),,19.0074369228,72.8144064246,,0,,,
990,,POLICE CAMP,,19.009576887,72.8153940993,,0,,,
989,,WORLI SEA FACE (S),,19.0003834221,72.8111999671,,0,,,
1664,,FLORA HOTEL/WATUMAL ENGG.COLLEGE,,19.0027656095,72.8139289914,,0,,,
3332,,PODDAR HOSPITAL/SIDDHARTH NGR.,,19.0017012285,72.8155988233,,0,,,
3331,,PODDAR HOSPITAL/SIDDHARTH NGR.,,19.0012684648,72.8156367015,,0,,,
4912,,MUNICIPAL GARAGE (WORLI),,18.9968259983,72.8182909081,,0,,,
4638,,AMBIKA MILL B.STN/ H.U.RAKHANGI CHK,,18.9890764877,72.8225059221,,0,,,
553,,SANTACRUZ STN.RD/ KASHIBAI HOSP.,,19.0841373455,72.8379882901,,0,,,
1073,,CITYLIGHT CINEMA,,19.0299419184,72.8416482504,,0,,,
835,,KAPADA BAZAR,,19.0301784216,72.8400079032,,0,,,
3989,,VANITA SAMAJ/CHAYTYABHOOMI,,19.0254938278,72.8358665795,,0,,,
2792,,CATERING COLLEGE/SURYAVANSHI HALL,,19.024,72.83519,,0,,,
4084,,SIDDHIVINAYAK MANDIR,,19.0172145494,72.8302226957,,0,,,
817,,VASUDEO B.PHADKE CHK.,,18.9382623884,72.8302854425,,0,,,
116,,ERLA,,19.1083600265,72.8405817709,,0,,,
3348,,ANDHERI FIRE BRIGADE,,19.1140370352,72.8421267233,,0,,,
119,,ANDHERI STN.(W),,19.1199165888,72.8454312048,,0,,,
125,,OSHIWARA BRIDGE,,19.1502252059,72.8431820544,,0,,,
123,,JOGESHWARI TEL.EXCH.,,19.1431894578,72.8428991995,,0,,,
122,,JOGESHWARI BUS STN,,19.1335425275,72.847619223,,0,,,
121,,AMBOLI NAKA,,19.1273289538,72.847175049,,0,,,
120,,ANDHERI MARKET,,19.1221491076,72.8463060133,,0,,,
3131,,VASANTRAO NAIK CHK.,,18.9695825075,72.8152028422,,0,,,
993,,VATSALABAI DESAI CHK/SAHAKAR NIVAS,,18.9773339986,72.8115218322,,0,,,
3317,,DR.RAVINDRA KULKARNI CHK/SASMIRA,,19.004429438,72.8170049561,,0,,,
308,,MAKER TOWER,,18.9157373813,72.8174810918,,0,,,
1349,,MOUNT CARMEL CHURCH/LILAVATI HOSP.,,19.051161438,72.8278900301,,0,,,
921,,HILL RD.GARDEN/MEHBOOB STUDIO,,19.0523885175,72.8240662729,,0,,,
1069,,ST.ANDREW'S CHURCH,,19.0547209577,72.8254502928,,0,,,
1072,,HOLI FAMILY HOSPITAL,,19.0548223674,72.8274780428,,0,,,
922,,ST.PETER'S CHURCH,,19.0549136361,72.8293491518,,0,,,
2693,,BANK OF INDIA,,19.0552381466,72.8305078661,,0,,,
2419,,ELCO MARKET,,19.0556437837,72.8330398714,,0,,,
925,,BANDRA POLICE STN,,19.0560535829,72.8348255967,,0,,,
2234,,KALA NGR.(MHADA OFFICE),,19.0543101192,72.8471602784,,0,,,
4626,,PASSPORT OFFICE,,19.0118981487,72.8216900652,,0,,,
3118,,VASUDEO B.PHADKE CHK.,,18.9437528254,72.8287624895,,0,,,
1076,,VENUS BLDG/WATUMAL ENGG.COLLEGE,,19.0030614932,72.812315766,,0,,,
1075,,WORLI DAIRY,,18.9976473565,72.8115873703,,0,,,
1159,,NARAYAN PUJARI NGR.,,18.9951083074,72.8136890571,,0,,,
1081,,SHANTI BAUG,,19.0560201993,72.8949027602,,0,,,
2739,,KRISHNA BAUG/FINE ARTS AUDITORIUM,,19.0621476267,72.8979308383,,0,,,
2823,,MUN.WARD OFFICE/AMBEDKAR GARDEN,,19.0605731489,72.8987441037,,0,,,
1083,,POST OFFICE,,19.0598010064,72.8985482348,,0,,,
2303,,B.S.E.S.SUB STN.,,19.0591520028,72.8993099821,,0,,,
3382,,ANUSHAKTI NGR.,,19.0427191074,72.9261058008,,0,,,
4472,,MANTRALAYA,,18.928428774,72.8238003762,,0,,,
3781,,Y.B.CHAVAN PRATISHTHAN,,18.9263127631,72.8269653829,,0,,,
3368,,Y.B.CHAVAN PRATISHTHAN/MANTRALAYA,,18.9261909775,72.8263645681,,0,,,
3655,,FREE PRESS JOURNAL MARG,,18.9242220977,72.8248464378,,0,,,
1048,,VEEJ BHAVAN,,18.9219451312,72.8266333618,,0,,,
345,,GANDHI MARKET,,19.0460131278,72.8972190013,,0,,,
1087,,DEONAR BEST STAFF QUARTERS,,19.0476218126,72.9142717909,,0,,,
2989,,AMARNATH PATIL SPORT COMP/ BANGANGA,,19.0499543199,72.9144219946,,0,,,
4230,,GOVANDI STN.RD.(E),,19.052834414,72.9142288755,,0,,,
1715,,GOVANDI BUS STN,,19.0543437903,72.9158129547,,0,,,
500,,WILSON COLLEGE,,18.9560393226,72.8112220415,,0,,,
3445,,SUKH SAGAR,,18.9561533962,72.8136228082,,0,,,
1109,,PRARTHANA SAMAJ,,18.9575540836,72.8192702163,,0,,,
1105,,SIKKA NAGAR/GANPATI MANDIR,,18.9512196,72.8311187,,0,,,
873,,KASTURBA GANDHI CHK.,,18.9549533852,72.825702212,,0,,,
872,,PHANASWADI,,18.9527037956,72.8246346343,,0,,,
3137,,THAKURDWAR,,18.9516251174,72.8227732398,,0,,,
1116,,THAKURDWAR,,18.9519092404,72.8229234435,,0,,,
2228,,CHH. SHIVAJI TERMINUS(BHATIA),,18.9391939242,72.8381651484,,0,,,
310,,VIDHAN BHAWAN,,18.9253413092,72.8241747462,,0,,,
3151,,SAKHAR BHAVAN,,18.9258284536,72.8229945742,,0,,,
3153,,N.C.P.A.,,18.9249847479,72.8221755304,,0,,,
3152,,N.C.P.A.,,18.9263649897,72.8204589166,,0,,,
497,,GOVERNMENT LAW COLLEGE,,18.9345063,72.8268243,,0,,,
1112,,WANKHEDE STADIUM,,18.9388459585,72.8242249005,,0,,,
1113,,MARINE DRIVE,,18.9412611736,72.8240103237,,0,,,
498,,GYMKHANA,,18.9452390989,72.8220362179,,0,,,
499,,TARAPOREWALA AQUARIUM,,18.9490951604,72.8194827549,,0,,,
4836,,BALBHAVAN,,18.951272081,72.8178548138,,0,,,
1117,,BIRLA KRIDA KENDRA,,18.9533570195,72.815684747,,0,,,
4595,,Y.B.CHAWAN PRATISHTHAN,,18.9265933374,72.8272770919,,0,,,
311,,N.C.P.A.,,18.9285860057,72.8215406185,,0,,,
2171,,INDIAN HUME PIPE CO.,,19.0175694919,72.8699535558,,0,,,
2170,,SANGAM NGR.,,19.0238378974,72.8765410611,,0,,,
1124,,PREM NGR.,,18.9500843804,72.7934101614,,0,,,
1123,,NARAYAN DABHOLKAR MARG,,18.9525197273,72.7952340635,,0,,,
4618,,KUMBHAR TUKDA,,18.9533126261,72.8259435523,,0,,,
3166,,THAKURDWAR,,18.952237024,72.8234544624,,0,,,
3145,,CHARNI RD.RLY.STN.,,18.9507758176,72.820729338,,0,,,
4619,,CHARNI RD.RLY.STN./PARSHI AGYARI,,18.9502763749,72.820440139,,0,,,
4314,,MARINE LINES RLY. STN.,,18.9466356634,72.82347592,,0,,,
2813,,DHOBI GHAT/DR.AMBEDKAR NAGAR,,18.9109141318,72.8188038114,,0,,,
1118,,LION'S GATE,,18.9267996552,72.8339490684,,0,,,
1120,,HORNIMAN CIRCLE,,18.9312244595,72.833777407,,0,,,
2637,,NANA CHK.,,18.9619309944,72.8127918037,,0,,,
4552,,NANA CHK..,,18.9619665076,72.8138539585,,0,,,
4620,,AHILYABAI HOLKAR CHK (E),,18.9332960354,72.8278850965,,0,,,
3150,,AHILYABAI HOLKAR CHK.,,18.9330977924,72.8276953244,,0,,,
503,,VASANTRAO NAIK CHK.,,18.9700026667,72.8150075826,,0,,,
3937,,DR.RAVINDRA KULARNI CHK./SASMIRA,,19.0101545786,72.8200569819,,0,,,
4538,,MUNICIPAL GARAGE(WORLI),,18.9957502658,72.8186999602,,0,,,
1126,,NAGPADA POLICE STN.,,18.9664705953,72.8300765305,,0,,,
3816,,NAGPADA POLICE HOSPITAL,,18.9657907881,72.8318360596,,0,,,
1125,,MASTAN TALAO,,18.9647755945,72.8306977291,,0,,,
1129,,ZAKERIA MASJID,,18.9528784466,72.8338359136,,0,,,
3398,,ZAKERIA MASJID,,18.95255881,72.8335730571,,0,,,
3162,,A.H.ANSARI CHK.,,18.9708841588,72.8324774857,,0,,,
696,,NOVELTY CINEMA/ DR BHADKAMKAR RD.,,18.9618437497,72.8183368797,,0,,,
858,,RAILWAY HOTEL / CHARNI RD.JUN.,,18.9587938061,72.8196210944,,0,,,
694,,PRARTHANA SAMAJ/ HARKISHANDAS HOSP.,,18.9576979456,72.8198356711,,0,,,
4771,,SAIDHAM,,18.9590137835,72.8173021693,,0,,,
3134,,VASANTRAO NAIK CHK.,,18.9688012508,72.8159742991,,0,,,
3529,,TARDEO BUS STN/RUSHI MEHTA CHK.,,18.9694139393,72.8152421153,,0,,,
3641,,MAHATMA PHULE MARKET,,18.9469690854,72.8352406657,,0,,,
1135,,HUTATMA CHK./MUMBAI UNIVERSITY,,18.9305519996,72.8314002277,,0,,,
3530,,AHILYABAI HOLKAR CHK.,,18.9333337056,72.8264849129,,0,,,
3814,,NAVJEEVAN SCTY.,,18.9660069845,72.8189834777,,0,,,
1140,,BYCULLA STN.-E (POLICE STN),,18.9738245343,72.8340860661,,0,,,
1139,,BYCULLA TELEPHONE EXCHANGE,,18.972160597,72.8370579537,,0,,,
3228,,MAHARANA PRATAP CHK./POST OFFICE,,18.9712271615,72.839589959,,0,,,
3117,,VASUDEO B.PHADKE CHK.,,18.9431810751,72.8285929021,,0,,,
687,,SANDHURST RD.STN.,,18.9609586465,72.838853506,,0,,,
686,,NOORBAUG,,18.9626480621,72.837152978,,0,,,
1141,,CAFE PARADISE,,18.9617551599,72.8301577768,,0,,,
879,,TWO TANKS,,18.9619175061,72.8280978403,,0,,,
1142,,ANJUMAN COLLEGE,,18.9617957465,72.8255229197,,0,,,
1107,,PLAY HOUSE,,18.9618174353,72.8215346577,,0,,,
2365,,MANTRALAYA,,18.9265431953,72.8274352406,,0,,,
3717,,GEETA NGR.,,18.9120622,72.8063632,,0,,,
3716,,GANESHMURTI NGR.POLICE CHKY,,18.9098306114,72.8136424346,,0,,,
3715,,M.T.PARK,,18.9086938302,72.814071588,,0,,,
3721,,WOOD HOUSE,,18.9218505694,72.8280457576,,0,,,
3760,,SIMLA HOUSE,,18.9582325059,72.8022775444,,0,,,
3761,,HYDERABAD EST.,,18.9567916459,72.8014943393,,0,,,
2534,,GARLIC CO.,,18.9795670196,72.8279062566,,0,,,
2245,,SUNDER GALLI,,18.9776880219,72.8293224901,,0,,,
1144,,SIMPLEX MILL,,18.979874348,72.8311434778,,0,,,
3282,,WORLI SEA FACE (N),,19.015185775,72.8193488788,,0,,,
3054,,R.T.O.OFFICE/DARGAH,,19.0152671793,72.8175373588,,0,,,
3052,,POLICE CAMP,,19.0077609067,72.8158529316,,0,,,
3053,,WORLI SEA FACE (S),,19.0059857251,72.8152843033,,0,,,
2644,,OM BUILDING,,19.0045858543,72.8148551498,,0,,,
3055,,FLORA HOTEL/WATUMAL ENGG.COLLEGE,,19.0026185193,72.8142347632,,0,,,
3328,,PODDAR HOSPITAL/SIDDHARTH NGR.,,19.0009515014,72.8154056708,,0,,,
3007,,KHODADAD CIRCLE (PRITAM HOTEL),,19.0168001748,72.8457987097,,0,,,
3008,,KHODADAD CIRCLE (BHAVE CHK.),,19.0166074522,72.8467696693,,0,,,
938,,SWAMI NARAYAN CHK.(DADAR STN-E),,19.0759837,72.8776559,,0,,,
940,,RAJA SHIVAJI H.SCHOOL-HINDU CLY.,,19.0209030846,72.8486633089,,0,,,
1648,,MADKEBUWA CHK.,,19.0053946911,72.8399194176,,0,,,
3122,,PAREL S.T.DEPOT/SANT ROHIDAS CHK.,,19.0093507981,72.8329134877,,0,,,
3123,,PAREL S.T.DEPOT/SANT ROHIDAS CHK.,,19.010441247,72.8324628766,,0,,,
3124,,SAYANI MARG,,19.0118613557,72.8316904004,,0,,,
1079,,PRABHADEVI,,19.0141132176,72.8305531437,,0,,,
1663,,PRABHADEVI/RAVINDRA NATYA MANDIR,,19.0154597555,72.8296572859,,0,,,
2715,,GAMMON HOUSE,,19.0146406763,72.826283067,,0,,,
3826,,COM.P.K.KURNE CHK.,,19.0063373639,72.8215932802,,0,,,
886,,GOPAL NGR.,,19.0063460144,72.8232989577,,0,,,
887,,BOMBAY DYEING,,19.0063373639,72.8287279562,,0,,,
4344,,DHANMILL NAKA,,19.0093196518,72.8307235197,,0,,,
4343,,PAREL S.T.DEPOT/SANT ROHIDAS CHK,,19.0093399393,72.8325259642,,0,,,
4342,,PAREL S.T.DEPOT/SANT ROHIDAS CHK,,19.0092689331,72.8333520845,,0,,,
4831,,BRADBURY MILL,,18.9752530425,72.8310391039,,0,,,
4830,,NEW AGRIPADA,,18.9741167066,72.8310391039,,0,,,
4828,,A.H.ANSARI CHK./SALVATION ARMY,,18.9734673683,72.8300091356,,0,,,
4832,,CRIST CHURCH SCHOOL,,18.9716816751,72.8291508288,,0,,,
4829,,MADANPURA,,18.9695712856,72.8289791674,,0,,,
880,,HASRAT MOHANI CHK.,,18.9664868222,72.8284641833,,0,,,
878,,PLAY HOUSE,,18.9603177241,72.8286358446,,0,,,
876,,GOL MANDIR,,18.9580754629,72.8284204413,,0,,,
875,,ALANKAR CINEMA,,18.9581225321,72.8267349573,,0,,,
874,,GULAL WADI/YADNIK CHK,,18.9558463238,72.8271506049,,0,,,
928,,DHARAVI FLY OVER BRIDGE,,19.0483107892,72.856443567,,0,,,
2794,,MAHIM PHATAK,,19.0459985419,72.848590059,,0,,,
932,,SHAHU NGR.,,19.0413739506,72.8500920961,,0,,,
3346,,MATUNGA LABOUR CAMP,,19.0382908182,72.8535682389,,0,,,
3784,,KUMBHARWADA,,19.038850759,72.8542603283,,0,,,
3345,,LOKMANYA TILAK HOSPITAL,,19.0361001367,72.857559366,,0,,,
944,,MATUNGA RLY PHATAK (E),,19.0334791511,72.854615348,,0,,,
3344,,BMC WARD OFFICE,,19.0280529474,72.8551356965,,0,,,
943,,PIONEER HIGH SCHOOL,,19.028848369,72.8533536622,,0,,,
951,,POST OFFICE,,19.024395722,72.8539716304,,0,,,
942,,MATUNGA STN.(E),,19.0281181035,72.8514439294,,0,,,
941,,PODDAR COLLEGE & RUIA COLLEGE,,19.0233171103,72.8496117379,,0,,,
303,,T.B.HOSPITAL,,19.0050319463,72.8514010141,,0,,,
5180,,T.B.HOSPITAL,,19.0050319463,72.8514010141,,0,,,
301,,BEST CLY.,,19.0054656339,72.847656552,,0,,,
4229,,BHOIWADA/MANE MASTER CHK.,,19.0759837,72.8776559,,0,,,
3330,,PODDAR HOSPITAL/SIDDHARTH NGR.,,19.0003834221,72.8164356391,,0,,,
3824,,PAREL S.T.DEPOT/SANT ROHIDAS CHK.,,19.0082815763,72.8328063193,,0,,,
3827,,ELPHINSTONE STN.(W),,19.0073128397,72.8351022902,,0,,,
4714,,ELPHINSTONE STN.(W),,19.0073128397,72.8351022902,,0,,,
3038,,DNYANESHWAR NGR.,,19.0047887257,72.8540773112,,0,,,
3037,,DNYANESHWAR NGR.,,19.0054430138,72.8540987689,,0,,,
3125,,PAREL S.T.DEPOT/SANT ROHIDAS CHK.,,19.0093448479,72.8318750602,,0,,,
1649,,DEEPAK CINEMA,,19.0062342426,72.830924483,,0,,,
4965,,COM.P.K.KURNE CHK.,,19.0062814837,72.82224843,,0,,,
4920,,HINDUSTAN MILL,,18.9794181871,72.8268832872,,0,,,
4872,,NEW AGRIPADA,,18.9780383841,72.8270549486,,0,,,
4871,,SALVATION ARMY,,18.9764962379,72.8273124407,,0,,,
3241,,GARLIC CO.,,18.9767397356,72.8301448534,,0,,,
3242,,SUNDER GALLI,,18.975441077,72.8312606523,,0,,,
4870,,A.H.ANSARI CHK.,,18.9737365722,72.8322906206,,0,,,
4475,,REAY RD.RLY.STN.,,18.9759562412,72.8436065446,,0,,,
3443,,HINDU CEMETARY,,18.9773563528,72.8469324838,,0,,,
3316,,SEWREE POLICE STN/DARUKHANA,,18.9785738315,72.847769333,,0,,,
1652,,I.C.I.,,18.9796289726,72.8494001161,,0,,,
1653,,ORDNANCE DEPOT ( REAY RD.- E ),,18.9808058528,72.8512883912,,0,,,
3383,,CANTEEN STORES DEPARTMENT,,18.9817189438,72.8533268701,,0,,,
1651,,HINDUSTAN PETROLIUM CO.,,18.981130508,72.8563738595,,0,,,
1654,,TATA OIL MILL/ HINDUSTAN LEVER LTD.,,18.9811507989,72.8590346109,,0,,,
4228,,LAL BAHADDUR SHASTRI COLLEGE,,18.9835045295,72.8583479654,,0,,,
3357,,SARDAR NGR.NO 2,,19.0371603285,72.8671728415,,0,,,
1161,,HANUMAN MANDIR/D'SILVA SCHOOL,,19.0195151146,72.8403845029,,0,,,
2686,,RANI LAXMIBAI CHK.,,19.0445326867,72.8640653968,,0,,,
1243,,RANI LAXMIBAI CHK.(BUS STN.),,19.0428288898,72.8637220741,,0,,,
4975,,GURUNANAK HIGH SCHOOL,,19.036338075,72.8640653968,,0,,,
4973,,MUNICIPAL COLONY,,19.0344719188,72.8627350212,,0,,,
4972,,SANATAN DHARM HIGH SCHOOL,,19.0339850919,72.8650524498,,0,,,
3763,,KANE NGR.,,19.0283704174,72.8664293162,,0,,,
3212,,ANTOP HILL EXTN.,,19.0256927539,72.8701629511,,0,,,
4214,,NARAYAN PUJARI NGR.,,19.0048806503,72.8135159312,,0,,,
3726,,JARIMARI MATA MANDIR/S.T.OFFICE,,18.9917588051,72.8141154633,,0,,,
4199,,ACHARYA ATRE CHK.,,18.9980542639,72.8170993625,,0,,,
4208,,VENUS BLDG/WATUMAL ENGG.COLLEGE,,18.9958630521,72.8129365741,,0,,,
4209,,WORLI SEA FACE (S),,18.9964514359,72.8124645053,,0,,,
4210,,FLORA HOTEL/WATUMAL ENGG.COLLEGE,,18.9950514848,72.8136017619,,0,,,
4215,,ACHARYA ATRE CHK.,,18.9985411959,72.8171637355,,0,,,
2232,,KHODADAD CIRCLE,,19.0171501179,72.8472631958,,0,,,
1160,,PARSI CLY.,,19.0177653177,72.8496455754,,0,,,
4085,,SIDDHIVINAYAK MANDIR,,19.0176205273,72.8306411547,,0,,,
2246,,SIMPLEX MILL,,18.980295982,72.829212014,,0,,,
4518,,WADALA GATE NO.4/SIWS SCHOOL,,19.0209908336,72.8593229856,,0,,,
4519,,V.J.T.I.COLLEGE,,19.0243785722,72.8571557607,,0,,,
3941,,FIRE BRIGADE JUN.(ANTOP HILL),,19.0259806714,72.8676059466,,0,,,
3940,,BHARANI NAKA (ANTOP HILL),,19.0255952473,72.8709962588,,0,,,
952,,NATURE PARK/P.M.G.P.CLY.,,19.0516280978,72.8627873847,,0,,,
5160,,KHERWADI JUN.,,19.0628491374,72.8469887994,,0,,,
3552,,KHERWADI JN.,,19.0651205885,72.8469887994,,0,,,
1164,,JUMBO DARSHAN,,19.1136474691,72.8531811789,,0,,,
1378,,GOKHALE BRIDGE,,19.1156563928,72.8464724131,,0,,,
555,,FAROOKH VIDYALAYA,,19.1306942462,72.8476042024,,0,,,
556,,JOGESHWARI TABELA,,19.1391675343,72.8444135001,,0,,,
291,,SINDHI CLY.,,19.1441340014,72.8405725768,,0,,,
292,,MEHRABAD BAUG,,19.1432707569,72.8377692593,,0,,,
293,,MAHATMA GANDHI VIDYALAYA,,19.1454516105,72.8368818572,,0,,,
569,,ASMITA JYOTI,,19.196063352,72.8284767913,,0,,,
2998,,TOWNSHIP MUNICIPAL SCHOOL,,19.1963875853,72.8253868865,,0,,,
4849,,FIRE BRIGADE/KHARODI CLY.,,19.195562881,72.8217606815,,0,,,
571,,MALVANI BLOCK NO 5/ POLICE STN.,,19.1923591085,72.8220860742,,0,,,
572,,MALVANI BLOCK NO 6,,19.1904947125,72.819940307,,0,,,
573,,MALVANI BLOCK NO 7,,19.1860362885,72.818824508,,0,,,
3342,,GALAXY VIEW BLDG,,19.0258144668,72.8684356085,,0,,,
3213,,ANTOP HILL SECT.7/ CPWD OFFICE,,19.0261390342,72.8670408598,,0,,,
3851,,CHAKALA (SATAMWADI),,19.1118430082,72.858803089,,0,,,
5159,,KHERWADI JUN.,,19.0659068087,72.8465139882,,0,,,
4655,,M.I.G.CLY.,,19.0634688317,72.8509561679,,0,,,
4654,,KALANGR.,,19.0619274779,72.8518466613,,0,,,
4204,,KALA NGR.,,19.0543293745,72.8461185235,,0,,,
5061,,DIAMOND MARKET,,19.0681439065,72.866662309,,0,,,
4818,,BHARAT DIAMOND BORSE,,19.0670487664,72.8647740339,,0,,,
3656,,LAXMI TOWER(BKC),,19.0682456878,72.8645146401,,0,,,
1150,,BANDRA STN(E),,19.0551652143,72.8419007452,,0,,,
76,,AGARKAR CHK.,,19.119822756,72.8487587451,,0,,,
1692,,VISHAL HALL/JUMBO DARSHAN,,19.1190920198,72.8507453502,,0,,,
1636,,TELI GULLY,,19.1155939643,72.8494595109,,0,,,
1693,,JUMBO DARSHAN,,19.1133746351,72.8544789851,,0,,,
625,,NATRAJ STUDIO,,19.1177142493,72.8531575679,,0,,,
3113,,CHAKALA (SATAMWADI),,19.111944383,72.8586636141,,0,,,
2117,,R.B.I.CLY.,,19.1116201161,72.8611324845,,0,,,
2118,,CHARATSINGH CLY.,,19.11082939,72.8614135795,,0,,,
1166,,J.B.NGR.,,19.1121057718,72.8670056318,,0,,,
1167,,MAROL PIPE LINES,,19.1110547937,72.8714455554,,0,,,
1170,,MAROL LIONS CLUB,,19.1097166351,72.8757800052,,0,,,
365,,MAROLNAKA/MATA RAMABAI AMBEDKAR CHK,,19.1084595671,72.8786982486,,0,,,
624,,VISHAL HALL/PRAKASH STUDIO,,19.118799681,72.8513611743,,0,,,
1701,,NATRAJ STUDIO,,19.1173821775,72.8534450749,,0,,,
627,,CHAKALA,,19.1161640271,72.8557814548,,0,,,
2807,,BELA NIVAS,,19.113558516,72.863061939,,0,,,
1165,,DIVINE CHILD HIGHSCHOOL,,19.1124502421,72.8658905427,,0,,,
3169,,"DR.AMBEDKAR UDN., POWAI",,19.126576,72.893884,,0,,,
3170,,"DR.AMBEDKAR UDN., POWAI",,19.126576,72.893884,,0,,,
1182,,SHIPPING CORPORATION,,19.1237059401,72.8976239154,,0,,,
1627,,RAMASHRAM,,19.1193673548,72.9029454181,,0,,,
2275,,POWAI VIHAR COMPLEX,,19.117704876,72.9039753864,,0,,,
2753,,TAGORE NGR.NO.5,,19.1249497184,72.9359922623,,0,,,
2293,,HARIYALI VILLAGE/LINK RD.,,19.1095782966,72.9308804801,,0,,,
1781,,TAGORE NGR.NO 3,,19.1085655213,72.9298507801,,0,,,
1780,,TAGORE NGR.POST OFFICE,,19.1152609034,72.931056108,,0,,,
1779,,TAGORE NGR.UDN./VIKHROLI BRIDGE,,19.1073489956,72.9295074574,,0,,,
3144,,VIKHROLI STN.RD.(E),,19.1103138433,72.9288760091,,0,,,
2372,,KINNARI HALL(KANNAMWAR NGR.),,19.1090771198,72.9334861095,,0,,,
1174,,KANNAMWAR NGR.NO 1,,19.1116520618,72.9346662815,,0,,,
1175,,VIKHROLI COURT,,19.1146527309,72.9359966571,,0,,,
331,,VIKAS VIDYALAYA,,19.1206741797,72.9390007312,,0,,,
318,,KANNAMWAR NGR.NO 2,,19.1176533456,72.9408675487,,0,,,
374,,MORARJI NGR.,,19.1293070543,72.8961407571,,0,,,
1203,,JAIBHIM NGR.,,19.1337670123,72.896741572,,0,,,
1204,,MAHATMA PHULE NGR.,,19.1374970664,72.8970848947,,0,,,
1201,,FILTER PADA,,19.1387944568,72.8933083444,,0,,,
2605,,GOREGAON CHECK NAKA NO 3,,19.1359010658,72.8885715274,,0,,,
4591,,TAPESHWAR MANDIR,,19.1346036527,72.884537485,,0,,,
1270,,MAROSHI NAKA / PICNIC POINT,,19.135525174,72.8823662101,,0,,,
3796,,B.S.E.S.,,19.1337006797,72.8816366493,,0,,,
1269,,GOREGAON CHECK NAKA NO 2,,19.1303759939,72.880349189,,0,,,
2445,,GOREGAON CHECK NAKA NO.2,,19.1264025011,72.8795981704,,0,,,
2444,,VIJAY NGR.,,19.1220082339,72.8798422515,,0,,,
3186,,BORIVLI STN(E),,19.2288549197,72.857628701,,0,,,
3936,,BORIVLI STN (E)/SUKURWADI,,19.2311530171,72.8582313204,,0,,,
1593,,BORIVLI MARKET(E)/CARTER RD.,,19.2313785268,72.85948807,,0,,,
3194,,OMKARESHWAR MANDIR,,19.2313353595,72.8626086855,,0,,,
3210,,OMKARESHWAR MANDIR,,19.230565468,72.8626730585,,0,,,
4931,,NATIONAL PARK GATE,,19.2315754708,72.8638534237,,0,,,
4743,,SANJAY GANDHI UDYAN(NATIONAL PARK),,19.2310689644,72.8646902729,,0,,,
4927,,TEEN MURTI,,19.2301977697,72.8659562755,,0,,,
4932,,CHINCH PADA,,19.2294683938,72.8673939396,,0,,,
4933,,M.S.E.TRANSMISSION CO.,,19.228313542,72.8676514316,,0,,,
4928,,PICNIC POINT ROAD,,19.2264495536,72.8687457729,,0,,,
4934,,TUMNI PADA,,19.2256391172,72.8696899105,,0,,,
4935,,CHECK POST,,19.2240992771,72.8701405216,,0,,,
4936,,KANHERI CAVES BASE,,19.2230254328,72.8720931698,,0,,,
4742,,KANHERI CAVES,,19.2251528535,72.8837446857,,0,,,
4858,,BANDRA COLONY,,19.0607283377,72.8500831082,,0,,,
4863,,SUBHASH NGR.,,19.0642977925,72.847679849,,0,,,
4747,,DR.AMBEDKAR NAGAR,,19.0669557364,72.8511924874,,0,,,
4845,,WALMIKI NGR.,,19.0675322369,72.8527546781,,0,,,
4748,,H.P.OFFICERS QURTS.,,19.066246,72.858167,,0,,,
4746,,U.T.I.TRANING CENTRE,,19.0659417108,72.8595395218,,0,,,
4913,,ICICI BANK,,19.0651090216,72.8624427274,,0,,,
4914,,ICICI BANK,,19.0668937114,72.8645026639,,0,,,
3350,,SANTACRUZ STN RD/KASHIBAI HOSP.,,19.0841120016,72.8378212204,,0,,,
554,,GOLDEN TOBACCO,,19.1049553056,72.8395197195,,0,,,
118,,SHOPPERS STOP,,19.1153096646,72.8432075787,,0,,,
124,,AJIT GLASS FACTORY,,19.1468710202,72.8430551759,,0,,,
557,,RAM MANDIR,,19.1515737447,72.8442997209,,0,,,
558,,SAHARA,,19.154461632,72.8453385504,,0,,,
559,,GOREGAON POLICE STN,,19.1572588297,72.8458320769,,0,,,
2652,,JAWAHAR NGR.,,19.1599828549,72.8459113522,,0,,,
1365,,GORAI DEPOT,,19.2329544206,72.8259462685,,0,,,
1367,,M.H.B.CLY.,,19.2316982923,72.8346151681,,0,,,
1368,,DON BOSCO SCHOOL,,19.230107692,72.8415533043,,0,,,
1369,,VAZIRA NAKA,,19.2287794192,72.8455236113,,0,,,
1370,,BABHAI NAKA,,19.2285663774,72.8484094995,,0,,,
1371,,MAHARASHTRA NGR.,,19.2287085072,72.8528621352,,0,,,
2560,,BORIVLI STN(W),,19.2308075161,72.8561346528,,0,,,
2491,,BORIVLI STN-W (DIAMOND CINEMA),,19.2286193868,72.8549115655,,0,,,
3211,,BORIVLI STN-W (JAYA TALKIES),,19.2292677245,72.8561346528,,0,,,
2650,,DHARAMSHI HALL,,19.2250918936,72.8545376807,,0,,,
1291,,BORIVLI JAIL(W),,19.2236277824,72.853841092,,0,,,
1232,,KORA KENDRA,,19.2203049109,72.8527038354,,0,,,
1231,,SHASTRI NGR.,,19.2179545466,72.8518026131,,0,,,
1230,,POISAR DEPOT,,19.2136184415,72.851416375,,0,,,
1297,,DR.AMBEDKAR(SHATABDI) HOSPITAL,,19.208373,72.850458,,0,,,
1288,,KANDIVLI STN.RD.(W),,19.2043475075,72.8493594495,,0,,,
2849,,JAIN MANDIR,,19.2004067995,72.848669793,,0,,,
1228,,BALBHARATI,,19.199981874,72.8486867725,,0,,,
1227,,MILAP TALKIES,,19.1918551404,72.8467815179,,0,,,
1226,,N.L.VIDYALAYA,,19.188572158,72.8464811105,,0,,,
1225,,MALAD STN RD.-W,,19.1849743817,72.8466128674,,0,,,
1224,,NEW ERA TALKIES,,19.1825734532,72.8467815179,,0,,,
564,,RAJASTHANI SAMMELAN CAMPS/CHINCHOLI,,19.1778081529,72.846118667,,0,,,
294,,MADINA MANZIL,,19.1743222178,72.8451959871,,0,,,
562,,PATKAR COLLEGE,,19.1669957943,72.8455680295,,0,,,
561,,FILMISTAN,,19.1631042578,72.8458255215,,0,,,
1290,,KANDIVLI TELEPHONE EXCHANGE,,19.2112017189,72.8517036271,,0,,,
1286,,RANI SATI NGR.,,19.1801009504,72.8469531792,,0,,,
1285,,SUNDER NGR.,,19.1760148877,72.845600216,,0,,,
3409,,ANDHERI STN.(W),,19.1205630153,72.8457311576,,0,,,
1283,,SHOPPERS STOP,,19.1163197461,72.8422486456,,0,,,
1282,,MANO-BINA APTS,,19.1128527868,72.8383004339,,0,,,
4231,,NEW INDIA QTRS.,,19.1163051751,72.8347994395,,0,,,
4232,,JUHU SHOPPING CENTRE,,19.1167917601,72.8301645823,,0,,,
3291,,J.V.P.D.BUS STN.,,19.1161162676,72.8291887685,,0,,,
3290,,J.V.P.D.BUS STN.,,19.116136542,72.8272468491,,0,,,
1717,,SARASWAT BANK,,19.1069932576,72.8270136984,,0,,,
1292,,DHARAMSHI HALL,,19.2263832834,72.8549354333,,0,,,
2649,,BORIVLI STN-W (JAYA TALKIES),,19.2269862886,72.8552350551,,0,,,
1234,,BORIVLI STN(W),,19.2284904001,72.8557937402,,0,,,
1293,,BORIVLI TEL.EXCH.,,19.233528163,72.8550371186,,0,,,
4775,,BORIVLI STN.(W) BUS STN.,,19.2342436419,72.8551064019,,0,,,
1294,,PAI NGR.,,19.2353781922,72.8551922326,,0,,,
1237,,RAM MANDIR,,19.2369185964,72.8551070946,,0,,,
1238,,BHAGWATI HOSPITAL,,19.2405819982,72.854559867,,0,,,
1239,,TECHNICAL SCHOOL,,19.2418941836,72.8543938023,,0,,,
1295,,SHIVAJI NGR.,,19.2441004559,72.8538303632,,0,,,
1296,,MARY IMMACULATE SCHOOL,,19.2472202631,72.8542166013,,0,,,
1241,,NAVA GAON,,19.2508667158,72.8538303632,,0,,,
1242,,KANDER PADA(DAHISAR BRIDGE),,19.254805,72.855131,,0,,,
1223,,DAHISAR BRIDGE,,19.2545611988,72.8577124108,,0,,,
2717,,JAWAHAR NGR.,,19.159960903,72.8436671533,,0,,,
2272,,JAWAHAR NGR.,,19.1600419792,72.8461562433,,0,,,
1455,,RAM BAUG,,19.1631603924,72.8436281801,,0,,,
1456,,LOKMANYA TILAK NGR.,,19.1632009297,72.8420832277,,0,,,
1457,,C.C.I.CLY.,,19.1629171684,72.8394653917,,0,,,
2949,,MITHA NGR.,,19.1631603924,72.8376629473,,0,,,
1420,,MOTILAL NGR.NO 2,,19.1634441533,72.8357317568,,0,,,
3559,,MITH CHKY,,19.1953325114,72.8337729794,,0,,,
3561,,LALJIPADA POLICE CHKY,,19.2034391354,72.8341216675,,0,,,
1323,,DAHANUKAR WADI,,19.2075498134,72.8356093373,,0,,,
1324,,VAISHALI BHAVAN,,19.2054834908,72.8388291877,,0,,,
1325,,KANDIVLI VILLAGE,,19.2048768987,72.8414676088,,0,,,
1326,,MAHATMA GANDHI SWIMMING POOL,,19.2057279642,72.8424332041,,0,,,
3359,,KALA MARUTI MANDIR,,19.2050883531,72.8464144748,,0,,,
1328,,DENA BANK,,19.2045683053,72.8481466446,,0,,,
2493,,BORIVLI TEL.EXCH.,,19.2317928186,72.8561765223,,0,,,
3361,,BORIVLI PHATAK (W),,19.2365235343,72.8577356595,,0,,,
2653,,RAJHANS SCTY.,,19.2391167447,72.8582077283,,0,,,
1306,,SAI AMRUT SCTY.,,19.2416288782,72.8587656277,,0,,,
1305,,GOMANT NGR.,,19.243897869,72.8589802045,,0,,,
3360,,DAHISAR PHATAK (W),,19.2466530298,72.8589372891,,0,,,
1304,,DAHISAR STN.(W),,19.2497322726,72.8587656277,,0,,,
1303,,MUNICIPAL HOSPITAL,,19.2530545486,72.8585081357,,0,,,
1310,,I.C.CLY.,,19.2452820457,72.846577613,,0,,,
3547,,UNITY HOUSE,,19.2455876928,72.8486017243,,0,,,
1313,,CITIZEN BANK,,19.2454628465,72.8508127587,,0,,,
1312,,MT.POINSUR CHURCH,,19.2446844178,72.8520707771,,0,,,
3411,,L.I.C.OFFICE,,19.2441171758,72.8512768432,,0,,,
3258,,KANDIVLI STN.(W),,19.2044241869,72.8513217177,,0,,,
4866,,KALA MARUTI MANDIR,,19.2054728276,72.8444182828,,0,,,
1322,,YADAV NGR.,,19.2070417985,72.8328473691,,0,,,
5007,,HINDUSTAN NAKA/CHARANSINGH CHK.,,19.2077423178,72.8292262509,,0,,,
5002,,HINDUSTAN NAKA/C.CHARANSINGH CHK.,,19.2066322315,72.828888333,,0,,,
3711,,ASHISH COMPLEX,,19.261441836,72.8635962886,,0,,,
3363,,N.L.COMPLEX/RIDDHI SIDDHI SOC.,,19.2610772179,72.865602581,,0,,,
3173,,N.L.COMPLEX JUN.,,19.259689636,72.8650285883,,0,,,
2708,,CORPORATION BANK,,19.2597504062,72.8632046861,,0,,,
2709,,SHAKTI NGR.,,19.2597504062,72.8617884798,,0,,,
3175,,SUDHINDRA NGR.,,19.2585349968,72.861573903,,0,,,
1334,,ANAND HOSPITAL,,19.2579836555,72.8629669827,,0,,,
3362,,AVDHUT NGR.,,19.2581457112,72.861572234,,0,,,
1298,,DAHISAR MARKET,,19.25577212,72.859071161,,0,,,
4422,,KRISHNA VATIKA,,19.2613911946,72.8615792675,,0,,,
4421,,SARASWATI COMPLEX(DAHISAR),,19.2613810664,72.8601416034,,0,,,
1623,,SANTACRUZ STN (E),,19.0806793114,72.8428488305,,0,,,
4945,,VAKOLA POLICE STN/ROOP TALKIES,,19.0802514853,72.8480314177,,0,,,
3628,,ANJANABAI MAGAR/S.SAINIK SURVE CHK.,,19.0759837,72.8776559,,0,,,
900,,BANDRA BUS STN(W),,19.0541622958,72.8392646526,,0,,,
924,,BANK OF INDIA,,19.0551855703,72.8306406996,,0,,,
1352,,TOBACCO CO.,,19.0490317743,72.826259247,,0,,,
1351,,JOHN BAPTIST RD.,,19.0477133973,72.8258086359,,0,,,
1350,,MOUNT MARY STEPS( MUNICIPAL GARDEN),,19.0482204666,72.825014702,,0,,,
3571,,SUBHASH NGR.,,19.0667441609,72.8476946018,,0,,,
1341,,BANDRA TALAO,,19.0574082939,72.8384686624,,0,,,
1355,,ST.THERESA CHURCH,,19.0622558898,72.833145908,,0,,,
5044,,PALI MARKET,,19.0627978093,72.8296001628,,0,,,
1344,,L.I.C.CLY.,,19.0652267632,72.8298716011,,0,,,
1345,,DR.AMBEDKAR RD.,,19.0686441095,72.8300969067,,0,,,
4764,,PETIT GIRL'S SCHOOL,,19.0707489239,72.8284436145,,0,,,
4765,,MAMA HOTEL,,19.0724118744,72.8273707309,,0,,,
4766,,CHUIM VILLAGE,,19.0737503347,72.8262978472,,0,,,
4744,,SHERLI VILLAGE,,19.0724972209,72.8218410673,,0,,,
4745,,SHERLI VILLAGE,,19.0726898787,72.8218303385,,0,,,
1102,,VITHALBHAI PATEL RD.JUN.,,19.0714374815,72.8357055875,,0,,,
1360,,KHAR STN (W),,19.0697643812,72.8396216126,,0,,,
4516,,MPSC/UPSC TRAINNING CENTRE,,19.0686390052,72.8500981461,,0,,,
4846,,GOVT.COLONY BLDG.NO.10,,19.0694791419,72.8495789427,,0,,,
4515,,LOCAL SELF GOVT.(KHERWADI),,19.0710204254,72.8484631437,,0,,,
4642,,CARDINAL GRECIOUS SCH/TEACHER CLY,,19.0707993335,72.8470961497,,0,,,
496,,SEVEN BUNGALOWS BUS STN.,,19.1309708691,72.8199207614,,0,,,
2557,,BORIVLI STN(W),,19.2294277562,72.8561666167,,0,,,
1366,,VIVIDH BHARTI,,19.2321254339,72.8305238753,,0,,,
1453,,SUVIDHYA SCHOOL,,19.2299456087,72.8285928703,,0,,,
1364,,GORAI BRIDGE,,19.2265250822,72.8283459215,,0,,,
1316,,EKTA NGR.,,19.2006766822,72.8279707463,,0,,,
1275,,SAHAKARI BHANDAR,,19.1035225754,72.8326393481,,0,,,
3942,,RAHEJA COLLEGE,,19.0849833899,72.8322553926,,0,,,
3392,,YASHODHAM,,19.0847704682,72.8325879865,,0,,,
985,,DAULAT NGR.,,19.0846386594,72.8321802907,,0,,,
1004,,NOVELTY SILK MILL,,19.2539425862,72.8657028681,,0,,,
2326,,RAJASHREE CINEMA,,19.2517853233,72.863909632,,0,,,
1002,,DAHISAR STN.RD.(E),,19.2487466353,72.862665087,,0,,,
2325,,MANAV KALYAN KENDRA,,19.2461130602,72.8609484732,,0,,,
2324,,PARVAT NGR.,,19.2431553024,72.8601330817,,0,,,
2323,,AMBAWADI,,19.2397923076,72.8597039283,,0,,,
998,,DAULAT NGR.,,19.2364895964,72.8593846298,,0,,,
2322,,BORIVLI PHATAK (E),,19.2317628337,72.857741015,,0,,,
3204,,BORIVLI STN(E),,19.2306187951,72.8576782809,,0,,,
3072,,OMKARESHWAR MANDIR,,19.2313371611,72.863350405,,0,,,
4844,,BANDRA RLY. STN.(W),,19.0580142957,72.8414178399,,0,,,
4315,,GORAI DEPOT,,19.2326927173,72.8301751881,,0,,,
1388,,RAJENDRA NGR.,,19.2216434129,72.8595531113,,0,,,
1387,,DATTA PADA,,19.2214267195,72.86482501,,0,,,
2399,,RAMWADI,,19.1402347455,72.8585907436,,0,,,
1385,,DATTA TEKDI/SHIV TEKADI,,19.1390589961,72.8618523098,,0,,,
2450,,SHYAM NGR.,,19.1391114899,72.8633339178,,0,,,
4598,,KALPATARU EST.,,19.1398268974,72.8674597034,,0,,,
1199,,NAMASKAR,,19.1380809136,72.8705682972,,0,,,
1197,,POONAM NGR.,,19.1358517493,72.8701666477,,0,,,
2287,,P.M.G.P.CLY.,,19.1348381458,72.8700379017,,0,,,
1196,,MODEL TOWN,,19.1326708963,72.8697556743,,0,,,
1195,,TAKSHILA,,19.1307450074,72.8687686214,,0,,,
1194,,HOLY SPIRIT HOSPITAL,,19.1275400174,72.8675488117,,0,,,
1193,,CANOSSA SCHOOL,,19.1240522787,72.864302657,,0,,,
1384,,SHANTI NGR.,,19.1221473043,72.8642443302,,0,,,
1382,,TATA UNISYS,,19.1155119233,72.8682072614,,0,,,
3367,,MAHARASHTRA KATA,,19.1029958846,72.8883954466,,0,,,
1695,,LOKMANYA TILAK NGR.,,19.101900975,72.8901120604,,0,,,
1694,,MOHILI VILLAGE,,19.1001977679,72.8914424361,,0,,,
1381,,ASALPHA VILLAGE,,19.0971157294,72.8938886107,,0,,,
2697,,JAMBHULPADA,,19.0946825007,72.8973218382,,0,,,
264,,JAMBHULPADA,,19.0938816843,72.8997360802,,0,,,
1850,,GANESH MANDIR,,19.0944275491,72.8999972341,,0,,,
265,,BARVE NGR.,,19.097813788,72.9032588002,,0,,,
4926,,MITH CHOWKY,,19.195562881,72.8312020572,,0,,,
3565,,RENUKANGR.,,19.2110571619,72.8355968815,,0,,,
3613,,CHIKOOWADI/PADMA NAGAR,,19.21967,72.839238,,0,,,
3412,,RAMESHWAR BANK,,19.2273476107,72.8410042149,,0,,,
2888,,YOGI HOTEL,,19.2350337759,72.8437318076,,0,,,
1414,,THAKUR PAKHADI,,19.2340771675,72.8460491555,,0,,,
1415,,C.K.P.CLY.,,19.2315446582,72.8469074624,,0,,,
2726,,PRASANNA JEEVAN SCTY.,,19.2305316436,72.8479374307,,0,,,
2855,,DR.SHAMAPRASAD MUKHERJI GARDEN,,19.2308963296,72.8533233064,,0,,,
1389,,BORIVLI STN(W),,19.2308168048,72.8560586906,,0,,,
1311,,L.I.C.OFFICE,,19.242895659,72.8518545943,,0,,,
1372,,MT.POINSUR CHURCH,,19.2446379091,72.8524527269,,0,,,
1373,,JEEVAN BIMA NGR.,,19.2440656023,72.8500441032,,0,,,
1374,,L.I.C.OFFICERS TRAINING CENTRE,,19.2439551063,72.8478007003,,0,,,
1362,,SHANTI ASHRAM,,19.2406253855,72.8468431701,,0,,,
1391,,SANTACRUZ STN (W),,19.0824086115,72.8409111251,,0,,,
2710,,SOMPURI MARKET,,19.0808190774,72.8397650199,,0,,,
3351,,SANTACRUZ STN RD/ KASHIBAI HOSP.,,19.0841447595,72.8375870662,,0,,,
3349,,SANTACRUZ STN RD,,19.0825833195,72.8383058982,,0,,,
3074,,BORIVLI STN(E),,19.2295145634,72.8576166148,,0,,,
3207,,BORIVLI STN(E),,19.2296969469,72.8576997386,,0,,,
4542,,SHREEKRISHNA NGR./SHANTIVAN,,19.2334421888,72.8640629846,,0,,,
4543,,HEMGIRI SCTY./ GANESH MANDIR,,19.2376258248,72.8642400104,,0,,,
2571,,NANCY CLY.,,19.2397935748,72.8647549946,,0,,,
2880,,PATIDAR CLY.,,19.2419207783,72.8649266559,,0,,,
1606,,ASHOK VAN,,19.244798366,72.8673100029,,0,,,
4162,,ASHOKVAN MUN.SCHOOL,,19.2410091231,72.8680809337,,0,,,
4161,,CHOGLE NGR.,,19.2397530564,72.8699477512,,0,,,
3753,,POISAR DEPOT,,19.2132171867,72.8504814062,,0,,,
2719,,GOVERDHAN NGR./ BORSAPADA,,19.2126295735,72.8489579115,,0,,,
2766,,N.SUBHASHCHANDRA BOSE KRIDANGAN,,19.2121230086,72.8456105147,,0,,,
2158,,KAMAL VIHAR SPORTS COMPLEX,,19.2129335116,72.842842475,,0,,,
2720,,PUNCHASHEEL APT.,,19.2140762849,72.8404463154,,0,,,
2281,,MAHAVIR NGR.EXTN/PARIJAT SCTY.,,19.2150488764,72.838643871,,0,,,
2721,,RASHMI-RATHI SCTY.,,19.2152496447,72.835695168,,0,,,
2986,,GANESH CHK.,,19.2153359801,72.8337540782,,0,,,
2872,,BHAVISHYA NIDHI BHAVAN,,19.2153306937,72.8316611256,,0,,,
3754,,P.THAKRE NGR.MARKET,,19.215452267,72.8297728505,,0,,,
1432,,CHARKOP SECT.NO.5,,19.2154927914,72.8265112843,,0,,,
5067,,KANDER PADA BUS STN,,19.2597470085,72.8531633843,,0,,,
2763,,KANDER PADA- LINK RD.,,19.2584735133,72.8547680584,,0,,,
2762,,EKTA VIVEK BLDG.,,19.2579873469,72.8530514447,,0,,,
2741,,SHIVDHAM (RUSHI COMPLEX),,19.2536994492,72.8497962821,,0,,,
1418,,RUSHI COMPLEX,,19.2512161633,72.8509629624,,0,,,
1417,,HOLY CROSS RD.,,19.2475292018,72.8498900788,,0,,,
2583,,BORIVLI STN-W (DIAMOND CINEMA),,19.2286727182,72.8553182154,,0,,,
1413,,EKSAR VILLAGE,,19.2358195112,72.8457702058,,0,,,
1412,,EKSAR KOLIWADA,,19.2382101387,72.845298137,,0,,,
5166,,DADASAHEB SARFARE CHK,,19.0759837,72.8776559,,0,,,
726,,KHODADAD CIRCLE (BHAVE CHK),,19.0164451593,72.846662381,,0,,,
5050,,MAHIM/MAHIM BUS STN.,,19.0397617369,72.8414442032,,0,,,
4847,,P.MOHD.RAFI CHK/BANDRA BUS STN.,,19.0524183297,72.8386976211,,0,,,
570,,FIRE BRIGADE/KHARODI CLY.,,19.1959822935,72.8214386748,,0,,,
1421,,MILLAT NGR.,,19.1496230697,72.8285650199,,0,,,
1408,,HIGHLAND GARDEN,,19.1465824944,72.8287795966,,0,,,
3837,,AAI TULJABHAVANI CHK.,,19.1418390851,72.8295091575,,0,,,
3068,,LOKHANDWALA COMPLEX JN.,,19.1419404414,72.8307537025,,0,,,
1426,,JEEVAN NAGAR,,19.1315126,72.8334541,,0,,,
1425,,KOLSITE INDU./ JUCHANDRA SOCY,,19.0759837,72.8776559,,0,,,
1424,,AZAD NGR.,,19.1286259754,72.8377768047,,0,,,
1452,,PALLAVI BLDG.,,19.1308314178,72.8376094287,,0,,,
3970,,SHAHAJIRAJE SPORT COMPLEX,,19.1271257745,72.8371330745,,0,,,
2381,,NAVRANG TALKIES,,19.1239332158,72.8424418577,,0,,,
2397,,ANDHERI MARKET,,19.1222866234,72.8457115953,,0,,,
1431,,JANKALYAN NGR.POLICE CHKY,,19.1993664492,72.8204301642,,0,,,
